[
	{
		"Id": 1,
		"name": "浙江旅游职业学院",
		"coordinate": {
			"longitude": "120.303825",
			"latitude": "30.245401"
		},
		"city": "杭州市",
		"province": "浙江省",
		"district": "萧山区"
	},
	{
		"Id": 2,
		"name": "中国长江电力股份有限公司",
		"coordinate": {
			"longitude": "104.069703",
			"latitude": "30.589319"
		},
		"city": "成都市",
		"province": "四川省",
		"district": "武侯区"
	},
	{
		"Id": 3,
		"name": "兰州交通大学",
		"coordinate": {
			"longitude": "103.745276",
			"latitude": "36.099700"
		},
		"city": "兰州市",
		"province": "甘肃省",
		"district": "安宁区"
	},
	{
		"Id": 4,
		"name": "上海市城市建设设计研究总院(集团)有限公司",
		"coordinate": {
			"longitude": "121.513302",
			"latitude": "31.190447"
		},
		"city": "上海市",
		"province": "上海市",
		"district": "浦东新区"
	},
	{
		"Id": 5,
		"name": "国网山东省电力公司电力科学研究院",
		"coordinate": {
			"longitude": "116.992137",
			"latitude": "36.576781"
		},
		"city": "济南市",
		"province": "山东省",
		"district": "市中区"
	},
	{
		"Id": 6,
		"name": "国网山东省电力公司检修公司",
		"coordinate": {
			"longitude": "116.970023",
			"latitude": "36.657148"
		},
		"city": "济南市",
		"province": "山东省",
		"district": "槐荫区"
	},
	{
		"Id": 7,
		"name": "山东电力工业锅炉压力容器检验中心有限公司",
		"coordinate": {
			"longitude": "116.996829",
			"latitude": "36.664751"
		},
		"city": "济南市",
		"province": "山东省",
		"district": "市中区"
	},
	{
		"Id": 8,
		"name": "江西理工大学建筑与测绘工程学院",
		"coordinate": {
			"longitude": "115.874584",
			"latitude": "28.741103"
		},
		"city": "南昌市",
		"province": "江西省",
		"district": "青山湖区"
	},
	{
		"Id": 9,
		"name": "交通运输部天津水运工程科学研究所港口水工建筑技术国家工程实验室工程泥沙交通行业重点实验室",
		"coordinate": {
			"longitude": "117.703900",
			"latitude": "39.004081"
		},
		"city": "天津市",
		"province": "天津市",
		"district": "滨海新区"
	},
	{
		"Id": 10,
		"name": "上饶师范学院生命科学学院",
		"coordinate": {
			"longitude": "117.970846",
			"latitude": "28.418454"
		},
		"city": "上饶市",
		"province": "江西省",
		"district": "信州区"
	},
	{
		"Id": 11,
		"name": "江苏国恒安全评价咨询服务有限公司",
		"coordinate": {
			"longitude": "118.751291",
			"latitude": "32.032639"
		},
		"city": "南京市",
		"province": "江苏省",
		"district": "建邺区"
	},
	{
		"Id": 12,
		"name": "淮安市水利勘测设计研究院有限公司",
		"coordinate": {
			"longitude": "119.070916",
			"latitude": "33.591062"
		},
		"city": "淮安市",
		"province": "江苏省",
		"district": "清江浦区"
	},
	{
		"Id": 13,
		"name": "长春工程学院",
		"coordinate": {
			"longitude": "125.281115",
			"latitude": "43.854532"
		},
		"city": "长春市",
		"province": "吉林省",
		"district": "朝阳区"
	},
	{
		"Id": 14,
		"name": "信阳农林学院",
		"coordinate": {
			"longitude": "114.124905",
			"latitude": "32.161295"
		},
		"city": "信阳市",
		"province": "河南省",
		"district": "平桥区"
	},
	{
		"Id": 15,
		"name": "淮阴师范学院城市与环境学院",
		"coordinate": {
			"longitude": "119.009895",
			"latitude": "33.638444"
		},
		"city": "淮安市",
		"province": "江苏省",
		"district": "淮阴区"
	},
	{
		"Id": 16,
		"name": "中国铁路北京局集团有限公司通信段",
		"coordinate": {
			"longitude": "116.558070",
			"latitude": "40.280224"
		},
		"city": "北京市",
		"province": "北京市",
		"district": "怀柔区"
	},
	{
		"Id": 17,
		"name": "北京交通大学",
		"coordinate": {
			"longitude": "116.339340",
			"latitude": "39.950612"
		},
		"city": "北京市",
		"province": "北京市",
		"district": "海淀区"
	},
	{
		"Id": 18,
		"name": "南京市城市规划编制研究中心",
		"coordinate": {
			"longitude": "118.782961",
			"latitude": "32.046847"
		},
		"city": "南京市",
		"province": "江苏省",
		"district": "鼓楼区"
	},
	{
		"Id": 19,
		"name": "陕西理工大学",
		"coordinate": {
			"longitude": "107.054662",
			"latitude": "33.070776"
		},
		"city": "汉中市",
		"province": "陕西省",
		"district": "汉台区"
	},
	{
		"Id": 20,
		"name": "西北大学陕西省地表系统与环境承载力重点实验室",
		"coordinate": {
			"longitude": "108.925592",
			"latitude": "34.247654"
		},
		"city": "西安市",
		"province": "陕西省",
		"district": "碑林区"
	},
	{
		"Id": 21,
		"name": "广东电网有限责任公司",
		"coordinate": {
			"longitude": "113.308489",
			"latitude": "23.132253"
		},
		"city": "广州市",
		"province": "广东省",
		"district": "越秀区"
	},
	{
		"Id": 22,
		"name": "大连海洋大学海洋科技与环境学院",
		"coordinate": {
			"longitude": "121.553421",
			"latitude": "38.868365"
		},
		"city": "大连市",
		"province": "辽宁省",
		"district": "沙河口区"
	},
	{
		"Id": 23,
		"name": "新疆喀什噶尔河流域管理局",
		"coordinate": {
			"longitude": "75.960738",
			"latitude": "39.464978"
		},
		"city": "喀什地区",
		"province": "新疆维吾尔自治区",
		"district": "喀什市"
	},
	{
		"Id": 24,
		"name": "中南大学土木工程学院",
		"coordinate": {
			"longitude": "76.099449",
			"latitude": "39.440326"
		},
		"city": "喀什地区",
		"province": "新疆维吾尔自治区",
		"district": "喀什市"
	},
	{
		"Id": 25,
		"name": "国网浙江江山市供电有限公司",
		"coordinate": {
			"longitude": "118.626926",
			"latitude": "28.737245"
		},
		"city": "衢州市",
		"province": "浙江省",
		"district": "江山市"
	},
	{
		"Id": 26,
		"name": "山东省交通规划设计院",
		"coordinate": {
			"longitude": "116.970200",
			"latitude": "36.685651"
		},
		"city": "济南市",
		"province": "山东省",
		"district": "天桥区"
	},
	{
		"Id": 27,
		"name": "山东省交通科学研究院",
		"coordinate": {
			"longitude": "117.225478",
			"latitude": "36.653856"
		},
		"city": "济南市",
		"province": "山东省",
		"district": "历城区"
	},
	{
		"Id": 28,
		"name": "重庆市平正房地产测量事务所",
		"coordinate": {
			"longitude": "106.530484",
			"latitude": "29.570775"
		},
		"city": "重庆市",
		"province": "重庆市",
		"district": "江北区"
	},
	{
		"Id": 29,
		"name": "西安西电开关电气有限公司",
		"coordinate": {
			"longitude": "108.870084",
			"latitude": "34.253377"
		},
		"city": "西安市",
		"province": "陕西省",
		"district": "莲湖区"
	},
	{
		"Id": 30,
		"name": "河池市农业区划委员会办公室/河池市区域农业遥感监测站",
		"coordinate": {
			"longitude": "108.085261",
			"latitude": "24.692931"
		},
		"city": "河池市",
		"province": "广西壮族自治区",
		"district": []
	},
	{
		"Id": 31,
		"name": "中国电力科学研究院",
		"coordinate": {
			"longitude": "116.347404",
			"latitude": "40.041058"
		},
		"city": "北京市",
		"province": "北京市",
		"district": "海淀区"
	},
	{
		"Id": 32,
		"name": "中国地质大学(武汉)地球科学学院",
		"coordinate": {
			"longitude": "114.404152",
			"latitude": "30.523335"
		},
		"city": "武汉市",
		"province": "湖北省",
		"district": "洪山区"
	},
	{
		"Id": 33,
		"name": "湖南省地质环境监测总站",
		"coordinate": {
			"longitude": "112.990288",
			"latitude": "28.181938"
		},
		"city": "长沙市",
		"province": "湖南省",
		"district": "雨花区"
	},
	{
		"Id": 34,
		"name": "河南省地图院",
		"coordinate": {
			"longitude": "113.686361",
			"latitude": "34.779800"
		},
		"city": "郑州市",
		"province": "河南省",
		"district": "金水区"
	},
	{
		"Id": 35,
		"name": "南昌大学",
		"coordinate": {
			"longitude": "115.802686",
			"latitude": "28.665028"
		},
		"city": "南昌市",
		"province": "江西省",
		"district": "东湖区"
	},
	{
		"Id": 36,
		"name": "新疆农业大学水利与土木工程学院",
		"coordinate": {
			"longitude": "87.566626",
			"latitude": "43.814804"
		},
		"city": "乌鲁木齐市",
		"province": "新疆维吾尔自治区",
		"district": "沙依巴克区"
	},
	{
		"Id": 37,
		"name": "青海省核工业地质局",
		"coordinate": {
			"longitude": "101.756263",
			"latitude": "36.638328"
		},
		"city": "西宁市",
		"province": "青海省",
		"district": "城西区"
	},
	{
		"Id": 38,
		"name": "电子科技大学成都学院",
		"coordinate": {
			"longitude": "104.197787",
			"latitude": "30.824002"
		},
		"city": "成都市",
		"province": "四川省",
		"district": "新都区"
	},
	{
		"Id": 39,
		"name": "沈阳建筑大学管理学院",
		"coordinate": {
			"longitude": "123.513484",
			"latitude": "41.742936"
		},
		"city": "沈阳市",
		"province": "辽宁省",
		"district": "浑南区"
	},
	{
		"Id": 40,
		"name": "国网泸州供电公司",
		"coordinate": {
			"longitude": "105.448425",
			"latitude": "28.880126"
		},
		"city": "泸州市",
		"province": "四川省",
		"district": "江阳区"
	},
	{
		"Id": 41,
		"name": "安徽继远软件有限公司",
		"coordinate": {
			"longitude": "117.182716",
			"latitude": "31.818772"
		},
		"city": "合肥市",
		"province": "安徽省",
		"district": "蜀山区"
	},
	{
		"Id": 42,
		"name": "广东电网有限责任公司电力科学研究院",
		"coordinate": {
			"longitude": "113.306140",
			"latitude": "23.130858"
		},
		"city": "广州市",
		"province": "广东省",
		"district": "越秀区"
	},
	{
		"Id": 43,
		"name": "广东省电力装备可靠性企业重点实验室",
		"coordinate": {
			"longitude": "113.771048",
			"latitude": "23.741412"
		},
		"city": "广州市",
		"province": "广东省",
		"district": "从化区"
	},
	{
		"Id": 44,
		"name": "新能源电力系统国家重点实验室(华北电力大学)",
		"coordinate": {
			"longitude": 116.58740703373806,
			"latitude": 39.899532181408894
		},
		"city": "",
		"province": "",
		"district": ""
	},
	{
		"Id": 45,
		"name": "三明山水勘测规划有限公司",
		"coordinate": {
			"longitude": 116.81781276950164,
			"latitude": 26.183080306443028
		},
		"city": "",
		"province": "",
		"district": ""
	},
	{
		"Id": 46,
		"name": "中铁第五勘察设计院集团有限公司",
		"coordinate": {
			"longitude": "116.335831",
			"latitude": "39.760571"
		},
		"city": "北京市",
		"province": "北京市",
		"district": "大兴区"
	},
	{
		"Id": 47,
		"name": "国网重庆市电力公司江北供电分公司",
		"coordinate": {
			"longitude": "106.514739",
			"latitude": "29.596296"
		},
		"city": "重庆市",
		"province": "重庆市",
		"district": "渝北区"
	},
	{
		"Id": 48,
		"name": "国网重庆市电力公司",
		"coordinate": {
			"longitude": "106.551577",
			"latitude": "29.551292"
		},
		"city": "重庆市",
		"province": "重庆市",
		"district": "渝中区"
	},
	{
		"Id": 49,
		"name": "重庆大学输配电装备及系统安全与新技术国家重点实验室",
		"coordinate": {
			"longitude": "106.467730",
			"latitude": "29.561465"
		},
		"city": "重庆市",
		"province": "重庆市",
		"district": "沙坪坝区"
	},
	{
		"Id": 50,
		"name": "河北科技大学",
		"coordinate": {
			"longitude": "114.534811",
			"latitude": "38.046379"
		},
		"city": "石家庄市",
		"province": "河北省",
		"district": "长安区"
	},
	{
		"Id": 51,
		"name": "沈阳农业大学",
		"coordinate": {
			"longitude": "123.570051",
			"latitude": "41.826563"
		},
		"city": "沈阳市",
		"province": "辽宁省",
		"district": "沈河区"
	},
	{
		"Id": 52,
		"name": "新疆交通规划勘察设计研究院",
		"coordinate": {
			"longitude": "87.596811",
			"latitude": "43.776584"
		},
		"city": "乌鲁木齐市",
		"province": "新疆维吾尔自治区",
		"district": "沙依巴克区"
	},
	{
		"Id": 53,
		"name": "成都理工大学地质灾害防治与地质环境保护国家重点实验室",
		"coordinate": {
			"longitude": "104.143711",
			"latitude": "30.675357"
		},
		"city": "成都市",
		"province": "四川省",
		"district": "成华区"
	},
	{
		"Id": 54,
		"name": "中国地震局工程力学研究所中国地震局地震工程与工程振动重点实验室",
		"coordinate": {
			"longitude": "108.983597",
			"latitude": "34.225513"
		},
		"city": "西安市",
		"province": "陕西省",
		"district": "雁塔区"
	},
	{
		"Id": 55,
		"name": "广西岩土力学与工程重点实验室桂林理工大学",
		"coordinate": {
			"longitude": "110.299410",
			"latitude": "25.063400"
		},
		"city": "桂林市",
		"province": "广西壮族自治区",
		"district": "七星区"
	},
	{
		"Id": 56,
		"name": "华南理工大学公共管理学院",
		"coordinate": {
			"longitude": 121.43022602619035,
			"latitude": 31.14953758563933
		},
		"city": "",
		"province": "",
		"district": ""
	},
	{
		"Id": 57,
		"name": "北京大学深圳研究生院环境与能源学院城市人居环境科学与技术重点实验室",
		"coordinate": {
			"longitude": "113.977957",
			"latitude": "22.593647"
		},
		"city": "深圳市",
		"province": "广东省",
		"district": "南山区"
	},
	{
		"Id": 58,
		"name": "北京大学环境工程系水沙科学教育部重点实验室",
		"coordinate": {
			"longitude": "116.311877",
			"latitude": "39.991701"
		},
		"city": "北京市",
		"province": "北京市",
		"district": "海淀区"
	},
	{
		"Id": 59,
		"name": "长安大学",
		"coordinate": {
			"longitude": "108.955053",
			"latitude": "34.228959"
		},
		"city": "西安市",
		"province": "陕西省",
		"district": "雁塔区"
	},
	{
		"Id": 60,
		"name": "交通运输部管理干部学院",
		"coordinate": {
			"longitude": "116.838173",
			"latitude": "39.938042"
		},
		"city": "廊坊市",
		"province": "河北省",
		"district": "三河市"
	},
	{
		"Id": 61,
		"name": "长安大学汽车学院",
		"coordinate": {
			"longitude": "108.951664",
			"latitude": "34.227863"
		},
		"city": "西安市",
		"province": "陕西省",
		"district": "雁塔区"
	},
	{
		"Id": 62,
		"name": "北京信息科技大学自动化学院",
		"coordinate": {
			"longitude": "116.345916",
			"latitude": "40.037834"
		},
		"city": "北京市",
		"province": "北京市",
		"district": "海淀区"
	},
	{
		"Id": 63,
		"name": "北京信息科技大学电子信息与控制实验教学中心",
		"coordinate": {
			"longitude": "116.345722",
			"latitude": "40.037456"
		},
		"city": "北京市",
		"province": "北京市",
		"district": "海淀区"
	},
	{
		"Id": 64,
		"name": "杨凌职业技术学院",
		"coordinate": {
			"longitude": "108.082680",
			"latitude": "34.281178"
		},
		"city": "咸阳市",
		"province": "陕西省",
		"district": "杨陵区"
	},
	{
		"Id": 65,
		"name": "西北农林科技大学",
		"coordinate": {
			"longitude": "108.078491",
			"latitude": "34.272434"
		},
		"city": "咸阳市",
		"province": "陕西省",
		"district": "杨陵区"
	},
	{
		"Id": 66,
		"name": "新疆维吾尔自治区地质调查院",
		"coordinate": {
			"longitude": "87.627704",
			"latitude": "43.793026"
		},
		"city": [],
		"province": "新疆维吾尔自治区",
		"district": []
	},
	{
		"Id": 67,
		"name": "皖西学院环境与旅游学院",
		"coordinate": {
			"longitude": "116.525078",
			"latitude": "31.765627"
		},
		"city": "六安市",
		"province": "安徽省",
		"district": "金安区"
	},
	{
		"Id": 68,
		"name": "昆明理工大学国土资源工程学院",
		"coordinate": {
			"longitude": "102.696991",
			"latitude": "25.061126"
		},
		"city": "昆明市",
		"province": "云南省",
		"district": "五华区"
	},
	{
		"Id": 69,
		"name": "三峡库区地质灾害教育部重点实验室",
		"coordinate": {
			"longitude": "118.808752",
			"latitude": "32.091501"
		},
		"city": "南京市",
		"province": "江苏省",
		"district": "玄武区"
	},
	{
		"Id": 70,
		"name": "三峡大学土木与建筑学院",
		"coordinate": {
			"longitude": "111.311317",
			"latitude": "30.713680"
		},
		"city": "宜昌市",
		"province": "湖北省",
		"district": "西陵区"
	},
	{
		"Id": 71,
		"name": "河北科技师范学院城市建设学院",
		"coordinate": {
			"longitude": "115.663258",
			"latitude": "37.744187"
		},
		"city": "衡水市",
		"province": "河北省",
		"district": "桃城区"
	},
	{
		"Id": 72,
		"name": "华北理工大学矿业工程学院",
		"coordinate": {
			"longitude": "118.596666",
			"latitude": "39.211303"
		},
		"city": "唐山市",
		"province": "河北省",
		"district": "曹妃甸区"
	},
	{
		"Id": 73,
		"name": "华北理工大学外国语学院",
		"coordinate": {
			"longitude": "118.597339",
			"latitude": "39.200211"
		},
		"city": "唐山市",
		"province": "河北省",
		"district": "曹妃甸区"
	},
	{
		"Id": 74,
		"name": "西南有色昆明勘察设计院",
		"coordinate": {
			"longitude": "102.800597",
			"latitude": "24.966928"
		},
		"city": "昆明市",
		"province": "云南省",
		"district": "官渡区"
	},
	{
		"Id": 75,
		"name": "湖南师范大学GIS研究中心地理空间大数据挖掘与应用省重点实验室资源与环境科学学院",
		"coordinate": {
			"longitude": "112.955225",
			"latitude": "28.188740"
		},
		"city": "长沙市",
		"province": "湖南省",
		"district": "岳麓区"
	},
	{
		"Id": 76,
		"name": "湖南省水利厅",
		"coordinate": {
			"longitude": "112.996318",
			"latitude": "28.176282"
		},
		"city": "长沙市",
		"province": "湖南省",
		"district": "雨花区"
	},
	{
		"Id": 77,
		"name": "河南平高电气股份有限公司",
		"coordinate": {
			"longitude": "113.713062",
			"latitude": "34.673657"
		},
		"city": "郑州市",
		"province": "河南省",
		"district": "管城回族区"
	},
	{
		"Id": 78,
		"name": "云南电网有限责任公司电力科学研究院",
		"coordinate": {
			"longitude": "102.782329",
			"latitude": "24.982231"
		},
		"city": "昆明市",
		"province": "云南省",
		"district": "官渡区"
	},
	{
		"Id": 79,
		"name": "云南电网有限责任公司普洱供电局",
		"coordinate": {
			"longitude": "100.979338",
			"latitude": "22.799362"
		},
		"city": "普洱市",
		"province": "云南省",
		"district": "思茅区"
	},
	{
		"Id": 80,
		"name": "云南电网有限责任公司曲靖供电局",
		"coordinate": {
			"longitude": "103.781323",
			"latitude": "25.497376"
		},
		"city": "曲靖市",
		"province": "云南省",
		"district": "麒麟区"
	},
	{
		"Id": 81,
		"name": "沈阳汇博热能设备有限公司",
		"coordinate": {
			"longitude": "123.440516",
			"latitude": "41.701232"
		},
		"city": "沈阳市",
		"province": "辽宁省",
		"district": "浑南区"
	},
	{
		"Id": 82,
		"name": "上海思源高压开关有限公司",
		"coordinate": {
			"longitude": "121.376776",
			"latitude": "31.057451"
		},
		"city": "上海市",
		"province": "上海市",
		"district": "闵行区"
	},
	{
		"Id": 83,
		"name": "天津大学海洋科学与技术学院",
		"coordinate": {
			"longitude": "117.174889",
			"latitude": "39.110447"
		},
		"city": "天津市",
		"province": "天津市",
		"district": "南开区"
	},
	{
		"Id": 84,
		"name": "天津市港口环境监测工程技术中心",
		"coordinate": {
			"longitude": "117.175928",
			"latitude": "39.069916"
		},
		"city": "天津市",
		"province": "天津市",
		"district": "南开区"
	},
	{
		"Id": 85,
		"name": "浙江省工程勘察院",
		"coordinate": {
			"longitude": "120.160314",
			"latitude": "30.318213"
		},
		"city": "杭州市",
		"province": "浙江省",
		"district": "拱墅区"
	},
	{
		"Id": 86,
		"name": "广东省国土资源测绘院",
		"coordinate": {
			"longitude": "113.316872",
			"latitude": "23.167635"
		},
		"city": "广州市",
		"province": "广东省",
		"district": "天河区"
	},
	{
		"Id": 87,
		"name": "四川省南充市气象局",
		"coordinate": {
			"longitude": "106.083126",
			"latitude": "30.817785"
		},
		"city": "南充市",
		"province": "四川省",
		"district": "顺庆区"
	},
	{
		"Id": 88,
		"name": "哈尔滨师范大学地理科学学院",
		"coordinate": {
			"longitude": "126.557551",
			"latitude": "45.869896"
		},
		"city": "哈尔滨市",
		"province": "黑龙江省",
		"district": "呼兰区"
	},
	{
		"Id": 89,
		"name": "南京森林警察学院刑事科学技术学院",
		"coordinate": {
			"longitude": "118.825305",
			"latitude": "32.083593"
		},
		"city": "南京市",
		"province": "江苏省",
		"district": "玄武区"
	},
	{
		"Id": 90,
		"name": "国家林业局森林公安司法鉴定中心",
		"coordinate": {
			"longitude": "112.240787",
			"latitude": "30.332870"
		},
		"city": "荆州市",
		"province": "湖北省",
		"district": "沙市区"
	},
	{
		"Id": 91,
		"name": "野生动植物物证技术国家林业局重点实验室",
		"coordinate": {
			"longitude": "110.080602",
			"latitude": "34.532951"
		},
		"city": "渭南市",
		"province": "陕西省",
		"district": "华阴市"
	},
	{
		"Id": 92,
		"name": "毕节市防震减灾局",
		"coordinate": {
			"longitude": "104.252725",
			"latitude": "26.874250"
		},
		"city": "毕节市",
		"province": "贵州省",
		"district": "威宁彝族回族苗族自治县"
	},
	{
		"Id": 93,
		"name": "国网浙江省电力有限公司电力科学研究院",
		"coordinate": {
			"longitude": "120.161906",
			"latitude": "30.291290"
		},
		"city": "杭州市",
		"province": "浙江省",
		"district": "拱墅区"
	},
	{
		"Id": 94,
		"name": "西安交通大学电力设备电气绝缘国家重点实验室",
		"coordinate": {
			"longitude": "108.980156",
			"latitude": "34.250773"
		},
		"city": "西安市",
		"province": "陕西省",
		"district": "碑林区"
	},
	{
		"Id": 95,
		"name": "中国石油大学(华东)信息与控制工程学院",
		"coordinate": {
			"longitude": "120.178429",
			"latitude": "35.940029"
		},
		"city": "青岛市",
		"province": "山东省",
		"district": "黄岛区"
	},
	{
		"Id": 96,
		"name": "国网浙江省电力有限公司",
		"coordinate": {
			"longitude": "119.046372",
			"latitude": "29.593147"
		},
		"city": "杭州市",
		"province": "浙江省",
		"district": "淳安县"
	},
	{
		"Id": 97,
		"name": "河北省第二测绘院",
		"coordinate": {
			"longitude": "114.552579",
			"latitude": "38.044579"
		},
		"city": "石家庄市",
		"province": "河北省",
		"district": "长安区"
	},
	{
		"Id": 98,
		"name": "齐齐哈尔聚龙科技有限公司",
		"coordinate": {
			"longitude": "123.937472",
			"latitude": "47.365324"
		},
		"city": "齐齐哈尔市",
		"province": "黑龙江省",
		"district": "建华区"
	},
	{
		"Id": 99,
		"name": "扬州大学",
		"coordinate": {
			"longitude": "119.421630",
			"latitude": "32.388299"
		},
		"city": "扬州市",
		"province": "江苏省",
		"district": "邗江区"
	},
	{
		"Id": 100,
		"name": "四川大学中国西部边疆安全与发展协同创新中心",
		"coordinate": {
			"longitude": "104.083748",
			"latitude": "30.630869"
		},
		"city": "成都市",
		"province": "四川省",
		"district": "武侯区"
	},
	{
		"Id": 101,
		"name": "广东电网有限责任公司东莞供电局",
		"coordinate": {
			"longitude": "113.785297",
			"latitude": "23.044837"
		},
		"city": "东莞市",
		"province": "广东省",
		"district": []
	},
	{
		"Id": 102,
		"name": "武汉大学测绘学院",
		"coordinate": {
			"longitude": "114.362083",
			"latitude": "30.525923"
		},
		"city": "武汉市",
		"province": "湖北省",
		"district": "洪山区"
	},
	{
		"Id": 103,
		"name": "湖北省基础地理信息中心(湖北省北斗卫星导航应用技术研究院)",
		"coordinate": {
			"longitude": "114.265292",
			"latitude": "30.589715"
		},
		"city": "武汉市",
		"province": "湖北省",
		"district": "江汉区"
	},
	{
		"Id": 104,
		"name": "东华理工大学测绘工程学院",
		"coordinate": {
			"longitude": "106.638504",
			"latitude": "35.230774"
		},
		"city": "平凉市",
		"province": "甘肃省",
		"district": "华亭市"
	},
	{
		"Id": 105,
		"name": "东华理工大学外国语学院",
		"coordinate": {
			"longitude": "104.143447",
			"latitude": "30.675898"
		},
		"city": "成都市",
		"province": "四川省",
		"district": "成华区"
	},
	{
		"Id": 106,
		"name": "北京林业大学林学院",
		"coordinate": {
			"longitude": "116.344400",
			"latitude": "40.001812"
		},
		"city": "北京市",
		"province": "北京市",
		"district": "海淀区"
	},
	{
		"Id": 107,
		"name": "国网黑龙江省电力有限公司林口供电公司",
		"coordinate": {
			"longitude": "130.264841",
			"latitude": "45.284125"
		},
		"city": "牡丹江市",
		"province": "黑龙江省",
		"district": "林口县"
	},
	{
		"Id": 108,
		"name": "南昌工程学院",
		"coordinate": {
			"longitude": "116.024488",
			"latitude": "28.687315"
		},
		"city": "南昌市",
		"province": "江西省",
		"district": "南昌县"
	},
	{
		"Id": 109,
		"name": "青岛理工大学",
		"coordinate": {
			"longitude": "120.205632",
			"latitude": "35.973277"
		},
		"city": "青岛市",
		"province": "山东省",
		"district": "黄岛区"
	},
	{
		"Id": 110,
		"name": "江西财经大学",
		"coordinate": {
			"longitude": "115.836831",
			"latitude": "28.729238"
		},
		"city": "南昌市",
		"province": "江西省",
		"district": "青山湖区"
	},
	{
		"Id": 111,
		"name": "广西大学",
		"coordinate": {
			"longitude": "108.288135",
			"latitude": "22.839381"
		},
		"city": "南宁市",
		"province": "广西壮族自治区",
		"district": "西乡塘区"
	},
	{
		"Id": 112,
		"name": "陕西铁路工程职业技术学院",
		"coordinate": {
			"longitude": "109.507356",
			"latitude": "34.487371"
		},
		"city": "渭南市",
		"province": "陕西省",
		"district": "临渭区"
	},
	{
		"Id": 113,
		"name": "国网济宁供电公司",
		"coordinate": {
			"longitude": "116.622639",
			"latitude": "35.426470"
		},
		"city": "济宁市",
		"province": "山东省",
		"district": "任城区"
	},
	{
		"Id": 114,
		"name": "南华大学",
		"coordinate": {
			"longitude": "101.283236",
			"latitude": "25.200163"
		},
		"city": "楚雄彝族自治州",
		"province": "云南省",
		"district": "南华县"
	},
	{
		"Id": 115,
		"name": "哈尔滨工业大学",
		"coordinate": {
			"longitude": "126.632884",
			"latitude": "45.743721"
		},
		"city": "哈尔滨市",
		"province": "黑龙江省",
		"district": "南岗区"
	},
	{
		"Id": 116,
		"name": "四川农业大学",
		"coordinate": {
			"longitude": "102.995598",
			"latitude": "29.977500"
		},
		"city": "雅安市",
		"province": "四川省",
		"district": "雨城区"
	},
	{
		"Id": 117,
		"name": "地质灾害防治与地质环境保护国家重点实验室(成都理工大学)",
		"coordinate": {
			"longitude": "104.147880",
			"latitude": "30.673040"
		},
		"city": "成都市",
		"province": "四川省",
		"district": "成华区"
	},
	{
		"Id": 118,
		"name": "中航勘察设计研究院有限公司",
		"coordinate": {
			"longitude": "116.336128",
			"latitude": "39.975979"
		},
		"city": "北京市",
		"province": "北京市",
		"district": "海淀区"
	},
	{
		"Id": 119,
		"name": "广东龙泉科技有限公司",
		"coordinate": {
			"longitude": "113.318885",
			"latitude": "23.088710"
		},
		"city": "广州市",
		"province": "广东省",
		"district": "海珠区"
	},
	{
		"Id": 120,
		"name": "广东工贸职业技术学院",
		"coordinate": {
			"longitude": "113.320363",
			"latitude": "23.173558"
		},
		"city": "广州市",
		"province": "广东省",
		"district": "天河区"
	},
	{
		"Id": 121,
		"name": "广州市自来水公司",
		"coordinate": {
			"longitude": "113.236827",
			"latitude": "23.140285"
		},
		"city": "广州市",
		"province": "广东省",
		"district": "荔湾区"
	},
	{
		"Id": 122,
		"name": "中煤(西安)地下空间科技发展有限公司",
		"coordinate": {
			"longitude": "120.596062",
			"latitude": "31.180122"
		},
		"city": "苏州市",
		"province": "江苏省",
		"district": "吴中区"
	},
	{
		"Id": 123,
		"name": "长江工程监理咨询有限公司(湖北)",
		"coordinate": {
			"longitude": "114.306644",
			"latitude": "30.610059"
		},
		"city": "武汉市",
		"province": "湖北省",
		"district": "江岸区"
	},
	{
		"Id": 124,
		"name": "北京东方华智石油工程有限公司",
		"coordinate": {
			"longitude": "116.415473",
			"latitude": "40.005067"
		},
		"city": "北京市",
		"province": "北京市",
		"district": "朝阳区"
	},
	{
		"Id": 125,
		"name": "曲靖市公安局",
		"coordinate": {
			"longitude": "103.805096",
			"latitude": "25.484070"
		},
		"city": "曲靖市",
		"province": "云南省",
		"district": "麒麟区"
	},
	{
		"Id": 126,
		"name": "江西南大融汇环境技术有限公司",
		"coordinate": {
			"longitude": "115.971100",
			"latitude": "28.729115"
		},
		"city": "南昌市",
		"province": "江西省",
		"district": "青山湖区"
	},
	{
		"Id": 127,
		"name": "长江水利委员会水文局长江口水文水资源勘测局",
		"coordinate": {
			"longitude": "118.737447",
			"latitude": "32.094297"
		},
		"city": "南京市",
		"province": "江苏省",
		"district": "鼓楼区"
	},
	{
		"Id": 128,
		"name": "长江水利委员会水文局长江下游水文水资源勘测局",
		"coordinate": {
			"longitude": "118.737579",
			"latitude": "32.094417"
		},
		"city": "南京市",
		"province": "江苏省",
		"district": "鼓楼区"
	},
	{
		"Id": 129,
		"name": "水利部水文仪器及岩土工程仪器质量监督检验测试中心",
		"coordinate": {
			"longitude": "118.763201",
			"latitude": "31.960557"
		},
		"city": "南京市",
		"province": "江苏省",
		"district": "雨花台区"
	},
	{
		"Id": 130,
		"name": "华北电力大学高电压与电磁兼容北京市重点实验室",
		"coordinate": {
			"longitude": "116.310015",
			"latitude": "40.089676"
		},
		"city": "北京市",
		"province": "北京市",
		"district": "昌平区"
	},
	{
		"Id": 131,
		"name": "广州供电局有限公司电力试验研究院",
		"coordinate": {
			"longitude": "113.264734",
			"latitude": "23.202087"
		},
		"city": "广州市",
		"province": "广东省",
		"district": "白云区"
	},
	{
		"Id": 132,
		"name": "辽宁工程技术大学测绘与地理科学学院",
		"coordinate": {
			"longitude": "123.461669",
			"latitude": "41.824577"
		},
		"city": "沈阳市",
		"province": "辽宁省",
		"district": "大东区"
	},
	{
		"Id": 133,
		"name": "辽宁省基础测绘院",
		"coordinate": {
			"longitude": "121.169117",
			"latitude": "41.128467"
		},
		"city": "锦州市",
		"province": "辽宁省",
		"district": "凌河区"
	},
	{
		"Id": 134,
		"name": "湖南工业大学城市与环境学院",
		"coordinate": {
			"longitude": "113.106165",
			"latitude": "27.824002"
		},
		"city": "株洲市",
		"province": "湖南省",
		"district": "天元区"
	},
	{
		"Id": 135,
		"name": "山东电力工程咨询院有限公司",
		"coordinate": {
			"longitude": "117.065955",
			"latitude": "36.668263"
		},
		"city": "济南市",
		"province": "山东省",
		"district": "历下区"
	},
	{
		"Id": 136,
		"name": "国网山东省电力公司",
		"coordinate": {
			"longitude": "116.996989",
			"latitude": "36.664589"
		},
		"city": "济南市",
		"province": "山东省",
		"district": "市中区"
	},
	{
		"Id": 137,
		"name": "江苏省测绘工程院",
		"coordinate": {
			"longitude": "118.756265",
			"latitude": "32.059603"
		},
		"city": "南京市",
		"province": "江苏省",
		"district": "鼓楼区"
	},
	{
		"Id": 138,
		"name": "深圳市宝安区环境保护和水务局",
		"coordinate": {
			"longitude": "113.914061",
			"latitude": "22.564783"
		},
		"city": "深圳市",
		"province": "广东省",
		"district": "宝安区"
	},
	{
		"Id": 139,
		"name": "江苏警官学院",
		"coordinate": {
			"longitude": "118.758882",
			"latitude": "31.993358"
		},
		"city": "南京市",
		"province": "江苏省",
		"district": "雨花台区"
	},
	{
		"Id": 140,
		"name": "北京交通大学土木建筑工程学院",
		"coordinate": {
			"longitude": "116.345973",
			"latitude": "39.950492"
		},
		"city": "北京市",
		"province": "北京市",
		"district": "海淀区"
	},
	{
		"Id": 141,
		"name": "中交铁道设计研究总院有限公司",
		"coordinate": {
			"longitude": "118.039772",
			"latitude": "24.550674"
		},
		"city": "厦门市",
		"province": "福建省",
		"district": "集美区"
	},
	{
		"Id": 142,
		"name": "南京市第一中学",
		"coordinate": {
			"longitude": "118.783956",
			"latitude": "32.026785"
		},
		"city": "南京市",
		"province": "江苏省",
		"district": "秦淮区"
	},
	{
		"Id": 143,
		"name": "河北省唐山水文水资源勘测局",
		"coordinate": {
			"longitude": "118.187820",
			"latitude": "39.620785"
		},
		"city": "唐山市",
		"province": "河北省",
		"district": "路南区"
	},
	{
		"Id": 144,
		"name": "广东电网有限责任公司梅州供电局",
		"coordinate": {
			"longitude": "116.177998",
			"latitude": "24.658651"
		},
		"city": "梅州市",
		"province": "广东省",
		"district": "蕉岭县"
	},
	{
		"Id": 145,
		"name": "中核核电运行管理有限公司",
		"coordinate": {
			"longitude": "120.522054",
			"latitude": "37.641147"
		},
		"city": "烟台市",
		"province": "山东省",
		"district": "龙口市"
	},
	{
		"Id": 146,
		"name": "深圳供电局有限公司",
		"coordinate": {
			"longitude": "114.112925",
			"latitude": "22.543641"
		},
		"city": "深圳市",
		"province": "广东省",
		"district": "罗湖区"
	},
	{
		"Id": 147,
		"name": "西华大学电气与电子信息学院",
		"coordinate": {
			"longitude": "103.954828",
			"latitude": "30.776378"
		},
		"city": "成都市",
		"province": "四川省",
		"district": "郫都区"
	},
	{
		"Id": 148,
		"name": "中国联合网络通信有限公司南京市分公司",
		"coordinate": {
			"longitude": "118.738844",
			"latitude": "32.051433"
		},
		"city": "南京市",
		"province": "江苏省",
		"district": "鼓楼区"
	},
	{
		"Id": 149,
		"name": "山东建大建筑规划设计研究院",
		"coordinate": {
			"longitude": "117.042989",
			"latitude": "36.663261"
		},
		"city": "济南市",
		"province": "山东省",
		"district": "历下区"
	},
	{
		"Id": 150,
		"name": "沈阳市文物考古研究所",
		"coordinate": {
			"longitude": "123.452355",
			"latitude": "41.830743"
		},
		"city": "沈阳市",
		"province": "辽宁省",
		"district": "皇姑区"
	},
	{
		"Id": 151,
		"name": "山东省文物工程公司",
		"coordinate": {
			"longitude": "117.036835",
			"latitude": "36.645568"
		},
		"city": "济南市",
		"province": "山东省",
		"district": "历下区"
	},
	{
		"Id": 152,
		"name": "西北大学",
		"coordinate": {
			"longitude": "108.927414",
			"latitude": "34.248524"
		},
		"city": "西安市",
		"province": "陕西省",
		"district": "碑林区"
	},
	{
		"Id": 153,
		"name": "武汉大学城市设计学院",
		"coordinate": {
			"longitude": "114.364686",
			"latitude": "30.541476"
		},
		"city": "武汉市",
		"province": "湖北省",
		"district": "武昌区"
	},
	{
		"Id": 154,
		"name": "广州市城市规划勘测设计研究院",
		"coordinate": {
			"longitude": "113.282100",
			"latitude": "23.134778"
		},
		"city": "广州市",
		"province": "广东省",
		"district": "越秀区"
	},
	{
		"Id": 155,
		"name": "重庆大学建筑城规学院",
		"coordinate": {
			"longitude": "106.461745",
			"latitude": "29.568292"
		},
		"city": "重庆市",
		"province": "重庆市",
		"district": "沙坪坝区"
	},
	{
		"Id": 156,
		"name": "上海建工集团工程研究总院",
		"coordinate": {
			"longitude": "121.526958",
			"latitude": "31.092343"
		},
		"city": "上海市",
		"province": "上海市",
		"district": "闵行区"
	},
	{
		"Id": 157,
		"name": "中铁四局集团路桥工程有限公司",
		"coordinate": {
			"longitude": "121.540087",
			"latitude": "28.365527"
		},
		"city": "台州市",
		"province": "浙江省",
		"district": "温岭市"
	},
	{
		"Id": 158,
		"name": "中铁四局集团管理研究院",
		"coordinate": {
			"longitude": "117.158569",
			"latitude": "31.715054"
		},
		"city": "合肥市",
		"province": "安徽省",
		"district": "肥西县"
	},
	{
		"Id": 159,
		"name": "广东电网有限责任公司佛山供电局",
		"coordinate": {
			"longitude": "113.096113",
			"latitude": "23.012492"
		},
		"city": "佛山市",
		"province": "广东省",
		"district": "禅城区"
	},
	{
		"Id": 160,
		"name": "华南理工大学",
		"coordinate": {
			"longitude": "113.367149",
			"latitude": "23.110704"
		},
		"city": "广州市",
		"province": "广东省",
		"district": "天河区"
	},
	{
		"Id": 161,
		"name": "湖南省地质矿产勘查开发局四一六队",
		"coordinate": {
			"longitude": "112.993301",
			"latitude": "28.122995"
		},
		"city": "长沙市",
		"province": "湖南省",
		"district": "天心区"
	},
	{
		"Id": 162,
		"name": "湖南省地质矿产勘查开发局408队",
		"coordinate": {
			"longitude": "112.993301",
			"latitude": "28.122995"
		},
		"city": "长沙市",
		"province": "湖南省",
		"district": "天心区"
	},
	{
		"Id": 163,
		"name": "国网山东省电力公司济南供电公司",
		"coordinate": {
			"longitude": "117.008606",
			"latitude": "36.657735"
		},
		"city": "济南市",
		"province": "山东省",
		"district": "市中区"
	},
	{
		"Id": 164,
		"name": "国网湖北送变电工程有限公司",
		"coordinate": {
			"longitude": "114.347248",
			"latitude": "30.597792"
		},
		"city": "武汉市",
		"province": "湖北省",
		"district": "武昌区"
	},
	{
		"Id": 165,
		"name": "湖南农业大学资源环境学院",
		"coordinate": {
			"longitude": "113.086865",
			"latitude": "28.184348"
		},
		"city": "长沙市",
		"province": "湖南省",
		"district": "芙蓉区"
	},
	{
		"Id": 166,
		"name": "湖南农业大学食品科技学院",
		"coordinate": {
			"longitude": "113.088798",
			"latitude": "28.182275"
		},
		"city": "长沙市",
		"province": "湖南省",
		"district": "芙蓉区"
	},
	{
		"Id": 167,
		"name": "中国科学院边缘海与大洋地质重点实验室中国科学院南海海洋研究所",
		"coordinate": {
			"longitude": "113.067846",
			"latitude": "23.135331"
		},
		"city": "佛山市",
		"province": "广东省",
		"district": "南海区"
	},
	{
		"Id": 168,
		"name": "中英(广东)CCUS中心",
		"coordinate": {
			"longitude": "113.593428",
			"latitude": "23.153437"
		},
		"city": "广州市",
		"province": "广东省",
		"district": "增城区"
	},
	{
		"Id": 169,
		"name": "中国科学院广州能源研究所",
		"coordinate": {
			"longitude": "113.346599",
			"latitude": "23.164413"
		},
		"city": "广州市",
		"province": "广东省",
		"district": "天河区"
	},
	{
		"Id": 170,
		"name": "广东石油化工学院石油工程学院",
		"coordinate": {
			"longitude": "113.106905",
			"latitude": "23.742287"
		},
		"city": "清远市",
		"province": "广东省",
		"district": "清城区"
	},
	{
		"Id": 171,
		"name": "核工业北京地质研究院遥感信息与图像分析技术国家级重点实验室",
		"coordinate": {
			"longitude": "116.414161",
			"latitude": "39.979036"
		},
		"city": "北京市",
		"province": "北京市",
		"district": "朝阳区"
	},
	{
		"Id": 172,
		"name": "沈阳市规划设计研究院",
		"coordinate": {
			"longitude": "123.424130",
			"latitude": "41.757644"
		},
		"city": "沈阳市",
		"province": "辽宁省",
		"district": "和平区"
	},
	{
		"Id": 173,
		"name": "电子科技大学",
		"coordinate": {
			"longitude": "108.375046",
			"latitude": "30.790291"
		},
		"city": "重庆市",
		"province": "重庆市",
		"district": "万州区"
	},
	{
		"Id": 174,
		"name": "攀枝花学院土木与建筑工程学院",
		"coordinate": {
			"longitude": "101.726169",
			"latitude": "26.567242"
		},
		"city": "攀枝花市",
		"province": "四川省",
		"district": "东区"
	},
	{
		"Id": 175,
		"name": "甘肃农业大学",
		"coordinate": {
			"longitude": "103.700945",
			"latitude": "36.091873"
		},
		"city": "兰州市",
		"province": "甘肃省",
		"district": "安宁区"
	},
	{
		"Id": 176,
		"name": "山东大学",
		"coordinate": {
			"longitude": "117.059475",
			"latitude": "36.678325"
		},
		"city": "济南市",
		"province": "山东省",
		"district": "历城区"
	},
	{
		"Id": 177,
		"name": "中国电信股份有限公司昆明分公司",
		"coordinate": {
			"longitude": "102.720741",
			"latitude": "25.038514"
		},
		"city": "昆明市",
		"province": "云南省",
		"district": "盘龙区"
	},
	{
		"Id": 178,
		"name": "国网浙江省电力公司检修分公司",
		"coordinate": {
			"longitude": "120.357743",
			"latitude": "30.229019"
		},
		"city": "杭州市",
		"province": "浙江省",
		"district": "萧山区"
	},
	{
		"Id": 179,
		"name": "南方电网科学研究院有限责任公司",
		"coordinate": {
			"longitude": "113.333809",
			"latitude": "23.132437"
		},
		"city": "广州市",
		"province": "广东省",
		"district": "天河区"
	},
	{
		"Id": 180,
		"name": "国网浙江省电力有限公司检修分公司",
		"coordinate": {
			"longitude": "119.046372",
			"latitude": "29.593147"
		},
		"city": "杭州市",
		"province": "浙江省",
		"district": "淳安县"
	},
	{
		"Id": 181,
		"name": "三江学院",
		"coordinate": {
			"longitude": "118.756310",
			"latitude": "31.957170"
		},
		"city": "南京市",
		"province": "江苏省",
		"district": "雨花台区"
	},
	{
		"Id": 182,
		"name": "国网江苏省电力有限公司电力科学研究院",
		"coordinate": {
			"longitude": "118.903556",
			"latitude": "31.952241"
		},
		"city": "南京市",
		"province": "江苏省",
		"district": "江宁区"
	},
	{
		"Id": 183,
		"name": "西安交通大学电气工程学院",
		"coordinate": {
			"longitude": "108.987105",
			"latitude": "34.250652"
		},
		"city": "西安市",
		"province": "陕西省",
		"district": "碑林区"
	},
	{
		"Id": 184,
		"name": "国网陕西省电力公司电力科学研究院",
		"coordinate": {
			"longitude": "108.955402",
			"latitude": "34.245832"
		},
		"city": "西安市",
		"province": "陕西省",
		"district": "碑林区"
	},
	{
		"Id": 185,
		"name": "国网汉中供电公司",
		"coordinate": {
			"longitude": "107.039299",
			"latitude": "33.087917"
		},
		"city": "汉中市",
		"province": "陕西省",
		"district": "汉台区"
	},
	{
		"Id": 186,
		"name": "国网陕西省电力公司检修公司",
		"coordinate": {
			"longitude": "108.876531",
			"latitude": "34.228691"
		},
		"city": "西安市",
		"province": "陕西省",
		"district": "雁塔区"
	},
	{
		"Id": 187,
		"name": "国网陕西省电力公司",
		"coordinate": {
			"longitude": "108.960807",
			"latitude": "34.262394"
		},
		"city": "西安市",
		"province": "陕西省",
		"district": "新城区"
	},
	{
		"Id": 188,
		"name": "国网上海市电力公司电力科学研究院",
		"coordinate": {
			"longitude": "121.499156",
			"latitude": "31.294075"
		},
		"city": "上海市",
		"province": "上海市",
		"district": "虹口区"
	},
	{
		"Id": 189,
		"name": "海南电网有限责任公司电力科学研究院",
		"coordinate": {
			"longitude": "110.297976",
			"latitude": "20.002316"
		},
		"city": "海口市",
		"province": "海南省",
		"district": "龙华区"
	},
	{
		"Id": 190,
		"name": "武汉大学电气工程学院",
		"coordinate": {
			"longitude": "114.360465",
			"latitude": "30.540623"
		},
		"city": "武汉市",
		"province": "湖北省",
		"district": "武昌区"
	},
	{
		"Id": 191,
		"name": "国网重庆市电力公司电力科学研究院",
		"coordinate": {
			"longitude": "106.499954",
			"latitude": "29.613393"
		},
		"city": "重庆市",
		"province": "重庆市",
		"district": "渝北区"
	},
	{
		"Id": 192,
		"name": "国家电网公司GIS设备运维检修技术实验室国网江苏省电力有限公司电力科学研究院",
		"coordinate": {
			"longitude": "118.853531",
			"latitude": "32.107757"
		},
		"city": "南京市",
		"province": "江苏省",
		"district": "栖霞区"
	},
	{
		"Id": 193,
		"name": "厦门红相电力设备股份有限公司",
		"coordinate": {
			"longitude": "118.162438",
			"latitude": "24.648067"
		},
		"city": "厦门市",
		"province": "福建省",
		"district": "同安区"
	},
	{
		"Id": 194,
		"name": "国网宁夏电力有限公司电力科学研究院",
		"coordinate": {
			"longitude": 106.27803897222152,
			"latitude": 38.462941057240506
		},
		"city": "",
		"province": "",
		"district": ""
	},
	{
		"Id": 195,
		"name": "国网宁夏电力有限公司",
		"coordinate": {
			"longitude": "106.258889",
			"latitude": "38.472273"
		},
		"city": [],
		"province": "宁夏回族自治区",
		"district": []
	},
	{
		"Id": 196,
		"name": "国网安徽省电力有限公司电力科学研究院",
		"coordinate": {
			"longitude": "117.195511",
			"latitude": "31.755188"
		},
		"city": "合肥市",
		"province": "安徽省",
		"district": "蜀山区"
	},
	{
		"Id": 197,
		"name": "国网安徽省电力有限公司阜阳供电公司",
		"coordinate": {
			"longitude": 117.28248969666866,
			"latitude": 31.855058492499236
		},
		"city": "",
		"province": "",
		"district": ""
	},
	{
		"Id": 198,
		"name": "上海格鲁布科技有限公司",
		"coordinate": {
			"longitude": "121.627037",
			"latitude": "31.202854"
		},
		"city": "上海市",
		"province": "上海市",
		"district": "浦东新区"
	},
	{
		"Id": 199,
		"name": "杨凌职业技术学院交通与测绘工程分院",
		"coordinate": {
			"longitude": "125.369259",
			"latitude": "43.831833"
		},
		"city": "长春市",
		"province": "吉林省",
		"district": "南关区"
	},
	{
		"Id": 200,
		"name": "山丹县林业勘察设计队",
		"coordinate": {
			"longitude": "101.088575",
			"latitude": "38.784758"
		},
		"city": "张掖市",
		"province": "甘肃省",
		"district": "山丹县"
	},
	{
		"Id": 201,
		"name": "重庆交通大学建筑与城市规划学院",
		"coordinate": {
			"longitude": "106.572289",
			"latitude": "29.490263"
		},
		"city": "重庆市",
		"province": "重庆市",
		"district": "南岸区"
	},
	{
		"Id": 202,
		"name": "黑龙江省第三森林调查规划设计院",
		"coordinate": {
			"longitude": "126.667649",
			"latitude": "45.750745"
		},
		"city": "哈尔滨市",
		"province": "黑龙江省",
		"district": "南岗区"
	},
	{
		"Id": 203,
		"name": "淮北矿业股份公司通防地测部",
		"coordinate": {
			"longitude": "116.796346",
			"latitude": "33.973330"
		},
		"city": "淮北市",
		"province": "安徽省",
		"district": "相山区"
	},
	{
		"Id": 204,
		"name": "合肥工业大学资源与环境工程学院",
		"coordinate": {
			"longitude": "117.292153",
			"latitude": "31.844822"
		},
		"city": "合肥市",
		"province": "安徽省",
		"district": "包河区"
	},
	{
		"Id": 205,
		"name": "昆明理工大学",
		"coordinate": {
			"longitude": "102.856572",
			"latitude": "24.852559"
		},
		"city": "昆明市",
		"province": "云南省",
		"district": "呈贡区"
	},
	{
		"Id": 206,
		"name": "Institute of Geology",
		"coordinate": {
			"longitude": 0,
			"latitude": 0
		},
		"city": "",
		"province": "",
		"district": ""
	},
	{
		"Id": 207,
		"name": " University of Azad Jammu and Kashmir",
		"coordinate": {
			"longitude": 0,
			"latitude": 0
		},
		"city": "",
		"province": "",
		"district": ""
	},
	{
		"Id": 208,
		"name": "National Center of Excellence in Geology",
		"coordinate": {
			"longitude": 104.27665570787465,
			"latitude": 30.567468797285333
		},
		"city": "",
		"province": "",
		"district": ""
	},
	{
		"Id": 209,
		"name": " University of Peshawar",
		"coordinate": {
			"longitude": 0,
			"latitude": 0
		},
		"city": "",
		"province": "",
		"district": ""
	},
	{
		"Id": 210,
		"name": "Land Use Planning and Development Department",
		"coordinate": {
			"longitude": 116.4870947845582,
			"latitude": 39.99279007057743
		},
		"city": "",
		"province": "",
		"district": ""
	},
	{
		"Id": 211,
		"name": " Azad Jammu and Kashmir",
		"coordinate": {
			"longitude": 0,
			"latitude": 0
		},
		"city": "",
		"province": "",
		"district": ""
	},
	{
		"Id": 212,
		"name": "宝钢股份武钢有限公司能源环保部",
		"coordinate": {
			"longitude": "114.436884",
			"latitude": "30.618866"
		},
		"city": "武汉市",
		"province": "湖北省",
		"district": "青山区"
	},
	{
		"Id": 213,
		"name": "广东电网有限责任公司阳江供电局",
		"coordinate": {
			"longitude": "111.974975",
			"latitude": "21.860189"
		},
		"city": "阳江市",
		"province": "广东省",
		"district": "江城区"
	},
	{
		"Id": 214,
		"name": "广州南沙信息港有限公司",
		"coordinate": {
			"longitude": "113.550782",
			"latitude": "22.793947"
		},
		"city": "广州市",
		"province": "广东省",
		"district": "南沙区"
	},
	{
		"Id": 215,
		"name": "西北农林科技大学风景园林艺术学院",
		"coordinate": {
			"longitude": "105.743248",
			"latitude": "32.530781"
		},
		"city": "广元市",
		"province": "四川省",
		"district": "朝天区"
	},
	{
		"Id": 216,
		"name": "中国地质调查局南京地质调查中心",
		"coordinate": {
			"longitude": "118.824825",
			"latitude": "32.038466"
		},
		"city": "南京市",
		"province": "江苏省",
		"district": "秦淮区"
	},
	{
		"Id": 217,
		"name": "国土资源部资源环境承载力评价重点实验室",
		"coordinate": {
			"longitude": "110.323611",
			"latitude": "25.256149"
		},
		"city": "桂林市",
		"province": "广西壮族自治区",
		"district": "七星区"
	},
	{
		"Id": 218,
		"name": "国家能源集团大渡河大岗山水电开发有限公司",
		"coordinate": {
			"longitude": "103.595304",
			"latitude": "29.463680"
		},
		"city": "乐山市",
		"province": "四川省",
		"district": "沙湾区"
	},
	{
		"Id": 219,
		"name": "国电大渡河猴子岩水电建设有限公司",
		"coordinate": {
			"longitude": "103.803312",
			"latitude": "29.594568"
		},
		"city": "乐山市",
		"province": "四川省",
		"district": "市中区"
	},
	{
		"Id": 220,
		"name": "华北理工大学",
		"coordinate": {
			"longitude": "118.179192",
			"latitude": "39.636848"
		},
		"city": "唐山市",
		"province": "河北省",
		"district": "路北区"
	},
	{
		"Id": 221,
		"name": "山西西龙池抽水蓄能电站有限责任公司",
		"coordinate": {
			"longitude": "111.839240",
			"latitude": "38.939497"
		},
		"city": "忻州市",
		"province": "山西省",
		"district": "五寨县"
	},
	{
		"Id": 222,
		"name": "北京科技大学土木与资源工程学院",
		"coordinate": {
			"longitude": "116.354586",
			"latitude": "39.992201"
		},
		"city": "北京市",
		"province": "北京市",
		"district": "海淀区"
	},
	{
		"Id": 223,
		"name": "国网福建省电力有限公司检修分公司",
		"coordinate": {
			"longitude": "119.321550",
			"latitude": "26.107183"
		},
		"city": "福州市",
		"province": "福建省",
		"district": "晋安区"
	},
	{
		"Id": 224,
		"name": "国网厦门供电公司",
		"coordinate": {
			"longitude": "118.099338",
			"latitude": "24.512087"
		},
		"city": "厦门市",
		"province": "福建省",
		"district": "湖里区"
	},
	{
		"Id": 225,
		"name": "中国建筑设计研究院有限公司",
		"coordinate": {
			"longitude": "113.861092",
			"latitude": "22.565397"
		},
		"city": "深圳市",
		"province": "广东省",
		"district": "宝安区"
	},
	{
		"Id": 226,
		"name": "南京师范大学地理科学学院",
		"coordinate": {
			"longitude": "118.911954",
			"latitude": "32.093466"
		},
		"city": "南京市",
		"province": "江苏省",
		"district": "栖霞区"
	},
	{
		"Id": 227,
		"name": "滁州市土地房产勘测规划院",
		"coordinate": {
			"longitude": "118.338875",
			"latitude": "32.254250"
		},
		"city": "滁州市",
		"province": "安徽省",
		"district": "南谯区"
	},
	{
		"Id": 228,
		"name": "葫芦岛供电公司经济技术研究所",
		"coordinate": {
			"longitude": "120.854750",
			"latitude": "40.747125"
		},
		"city": "葫芦岛市",
		"province": "辽宁省",
		"district": "连山区"
	},
	{
		"Id": 229,
		"name": "北京市海淀实验中学",
		"coordinate": {
			"longitude": "116.297739",
			"latitude": "39.944682"
		},
		"city": "北京市",
		"province": "北京市",
		"district": "海淀区"
	},
	{
		"Id": 230,
		"name": "云南大学资源环境与地球科学学院",
		"coordinate": {
			"longitude": 102.7085742274549,
			"latitude": 25.060198343162952
		},
		"city": "",
		"province": "",
		"district": ""
	},
	{
		"Id": 231,
		"name": "云南大学云南省\"一带一路\"研究院",
		"coordinate": {
			"longitude": "102.700578",
			"latitude": "25.052952"
		},
		"city": "昆明市",
		"province": "云南省",
		"district": "五华区"
	},
	{
		"Id": 232,
		"name": "国网浙江绍兴供电公司",
		"coordinate": {
			"longitude": "120.582999",
			"latitude": "30.003638"
		},
		"city": "绍兴市",
		"province": "浙江省",
		"district": "越城区"
	},
	{
		"Id": 233,
		"name": "大明电力建设有限公司",
		"coordinate": {
			"longitude": "120.653487",
			"latitude": "30.079674"
		},
		"city": "绍兴市",
		"province": "浙江省",
		"district": "越城区"
	},
	{
		"Id": 234,
		"name": "绍兴文理学院",
		"coordinate": {
			"longitude": "120.571268",
			"latitude": "29.981140"
		},
		"city": "绍兴市",
		"province": "浙江省",
		"district": "越城区"
	},
	{
		"Id": 235,
		"name": "广东电网公司中山供电局",
		"coordinate": {
			"longitude": "113.368834",
			"latitude": "22.510486"
		},
		"city": "中山市",
		"province": "广东省",
		"district": []
	},
	{
		"Id": 236,
		"name": "国网重庆市电力公司检修分公司",
		"coordinate": {
			"longitude": "108.411119",
			"latitude": "30.765125"
		},
		"city": "重庆市",
		"province": "重庆市",
		"district": "万州区"
	},
	{
		"Id": 237,
		"name": "中国启源工程设计院有限公司",
		"coordinate": {
			"longitude": "116.283991",
			"latitude": "39.917518"
		},
		"city": "北京市",
		"province": "北京市",
		"district": "海淀区"
	},
	{
		"Id": 238,
		"name": "西安高压电器研究院有限公司",
		"coordinate": {
			"longitude": "108.892887",
			"latitude": "34.233350"
		},
		"city": "西安市",
		"province": "陕西省",
		"district": "雁塔区"
	},
	{
		"Id": 239,
		"name": "国网吕梁供电公司",
		"coordinate": {
			"longitude": "111.151157",
			"latitude": "37.516713"
		},
		"city": "吕梁市",
		"province": "山西省",
		"district": "离石区"
	},
	{
		"Id": 240,
		"name": "贵州省地矿局104地质大队",
		"coordinate": {
			"longitude": "106.768940",
			"latitude": "26.632610"
		},
		"city": "贵阳市",
		"province": "贵州省",
		"district": "乌当区"
	},
	{
		"Id": 241,
		"name": "朔州职业技术学院",
		"coordinate": {
			"longitude": "112.408614",
			"latitude": "39.303410"
		},
		"city": "朔州市",
		"province": "山西省",
		"district": "朔城区"
	},
	{
		"Id": 242,
		"name": "中国第一汽车集团有限公司智能网联开发院",
		"coordinate": {
			"longitude": "125.240395",
			"latitude": "43.854046"
		},
		"city": "长春市",
		"province": "吉林省",
		"district": "绿园区"
	},
	{
		"Id": 243,
		"name": "国网陕西省电力公司榆林供电公司",
		"coordinate": {
			"longitude": "109.746742",
			"latitude": "38.293167"
		},
		"city": "榆林市",
		"province": "陕西省",
		"district": "榆阳区"
	},
	{
		"Id": 244,
		"name": "中国铁道科学研究院集团有限公司电子计算技术研究所",
		"coordinate": {
			"longitude": "116.342819",
			"latitude": "39.957016"
		},
		"city": "北京市",
		"province": "北京市",
		"district": "海淀区"
	},
	{
		"Id": 245,
		"name": "中国铁道科学研究院国家铁道试验中心",
		"coordinate": {
			"longitude": "116.342819",
			"latitude": "39.957016"
		},
		"city": "北京市",
		"province": "北京市",
		"district": "海淀区"
	},
	{
		"Id": 246,
		"name": "中国铁道科学研究院电子计算技术研究所",
		"coordinate": {
			"longitude": "116.345001",
			"latitude": "39.956699"
		},
		"city": "北京市",
		"province": "北京市",
		"district": "海淀区"
	},
	{
		"Id": 247,
		"name": "西藏农牧学院",
		"coordinate": {
			"longitude": "94.341601",
			"latitude": "29.666413"
		},
		"city": "林芝市",
		"province": "西藏自治区",
		"district": "巴宜区"
	},
	{
		"Id": 248,
		"name": "中煤陕西榆林能源化工有限公司",
		"coordinate": {
			"longitude": "109.539350",
			"latitude": "38.150850"
		},
		"city": "榆林市",
		"province": "陕西省",
		"district": "横山区"
	},
	{
		"Id": 249,
		"name": "贵阳市测绘院",
		"coordinate": {
			"longitude": "106.613413",
			"latitude": "26.677516"
		},
		"city": "贵阳市",
		"province": "贵州省",
		"district": "白云区"
	},
	{
		"Id": 250,
		"name": "山西大唐国际临汾热电有限责任公司",
		"coordinate": {
			"longitude": "111.491842",
			"latitude": "36.151686"
		},
		"city": "临汾市",
		"province": "山西省",
		"district": "尧都区"
	},
	{
		"Id": 251,
		"name": "深圳市赛为智能股份有限公司",
		"coordinate": {
			"longitude": "113.939292",
			"latitude": "22.544972"
		},
		"city": "深圳市",
		"province": "广东省",
		"district": "南山区"
	},
	{
		"Id": 252,
		"name": "六安市地理信息与规划测绘中心",
		"coordinate": {
			"longitude": "116.385700",
			"latitude": "32.421560"
		},
		"city": "六安市",
		"province": "安徽省",
		"district": "霍邱县"
	},
	{
		"Id": 253,
		"name": "霍山县国土资源局土地勘测服务站",
		"coordinate": {
			"longitude": "116.330467",
			"latitude": "31.400066"
		},
		"city": "六安市",
		"province": "安徽省",
		"district": "霍山县"
	},
	{
		"Id": 254,
		"name": "霍山县国土资源局执法大队",
		"coordinate": {
			"longitude": "116.330467",
			"latitude": "31.400066"
		},
		"city": "六安市",
		"province": "安徽省",
		"district": "霍山县"
	},
	{
		"Id": 255,
		"name": "成都中医药大学信息与技术中心",
		"coordinate": {
			"longitude": "104.043284",
			"latitude": "30.666864"
		},
		"city": "成都市",
		"province": "四川省",
		"district": "金牛区"
	},
	{
		"Id": 256,
		"name": "河北省邯郸水文水资源勘测局",
		"coordinate": {
			"longitude": "114.503315",
			"latitude": "36.575647"
		},
		"city": "邯郸市",
		"province": "河北省",
		"district": "邯山区"
	},
	{
		"Id": 257,
		"name": "河南大学黄河文明与可持续发展研究中心",
		"coordinate": {
			"longitude": "113.541989",
			"latitude": "34.792565"
		},
		"city": "郑州市",
		"province": "河南省",
		"district": "中原区"
	},
	{
		"Id": 258,
		"name": "长江流域水土保持监测中心站",
		"coordinate": {
			"longitude": "106.455953",
			"latitude": "26.030282"
		},
		"city": "黔南布依族苗族自治州",
		"province": "贵州省",
		"district": "长顺县"
	},
	{
		"Id": 259,
		"name": "长江水利委员会水土保持局",
		"coordinate": {
			"longitude": "114.289718",
			"latitude": "30.623485"
		},
		"city": "武汉市",
		"province": "湖北省",
		"district": "江岸区"
	},
	{
		"Id": 260,
		"name": "秭归县水土保持局",
		"coordinate": {
			"longitude": "110.982095",
			"latitude": "30.825349"
		},
		"city": "宜昌市",
		"province": "湖北省",
		"district": "秭归县"
	},
	{
		"Id": 261,
		"name": "江西省地质环境监测总站",
		"coordinate": {
			"longitude": "116.012668",
			"latitude": "28.675116"
		},
		"city": "南昌市",
		"province": "江西省",
		"district": "南昌县"
	},
	{
		"Id": 262,
		"name": "中国冶金地质总局中南地质勘查院",
		"coordinate": {
			"longitude": "114.366844",
			"latitude": "30.620987"
		},
		"city": "武汉市",
		"province": "湖北省",
		"district": "青山区"
	},
	{
		"Id": 263,
		"name": "山东省地质矿产勘查开发局第二水文地质工程地质大队",
		"coordinate": {
			"longitude": "117.045426",
			"latitude": "36.670372"
		},
		"city": "济南市",
		"province": "山东省",
		"district": "历下区"
	},
	{
		"Id": 264,
		"name": "中南林业科技大学",
		"coordinate": {
			"longitude": "116.347000",
			"latitude": "40.007599"
		},
		"city": "北京市",
		"province": "北京市",
		"district": "海淀区"
	},
	{
		"Id": 265,
		"name": "江西省地质矿产勘查开发局赣西北大队",
		"coordinate": {
			"longitude": "115.911493",
			"latitude": "28.662571"
		},
		"city": "南昌市",
		"province": "江西省",
		"district": "西湖区"
	},
	{
		"Id": 266,
		"name": "郑州工商学院",
		"coordinate": {
			"longitude": "113.892763",
			"latitude": "34.794529"
		},
		"city": "郑州市",
		"province": "河南省",
		"district": "中牟县"
	},
	{
		"Id": 267,
		"name": "中国地质大学",
		"coordinate": {
			"longitude": "114.384018",
			"latitude": "30.506981"
		},
		"city": "武汉市",
		"province": "湖北省",
		"district": "洪山区"
	},
	{
		"Id": 268,
		"name": "云南大学",
		"coordinate": {
			"longitude": "102.700578",
			"latitude": "25.052952"
		},
		"city": "昆明市",
		"province": "云南省",
		"district": "五华区"
	},
	{
		"Id": 269,
		"name": "天津大学",
		"coordinate": {
			"longitude": "117.169884",
			"latitude": "39.113447"
		},
		"city": "天津市",
		"province": "天津市",
		"district": "南开区"
	},
	{
		"Id": 270,
		"name": "中国矿业大学",
		"coordinate": {
			"longitude": "117.200020",
			"latitude": "34.221153"
		},
		"city": "徐州市",
		"province": "江苏省",
		"district": "泉山区"
	},
	{
		"Id": 271,
		"name": "中国矿业大学资源与地球科学学院",
		"coordinate": {
			"longitude": "110.652612",
			"latitude": "26.042452"
		},
		"city": "桂林市",
		"province": "广西壮族自治区",
		"district": "资源县"
	},
	{
		"Id": 272,
		"name": "河北工业大学",
		"coordinate": {
			"longitude": "114.463313",
			"latitude": "37.977250"
		},
		"city": "石家庄市",
		"province": "河北省",
		"district": "桥西区"
	},
	{
		"Id": 273,
		"name": "湘潭大学",
		"coordinate": {
			"longitude": "112.863096",
			"latitude": "27.882942"
		},
		"city": "湘潭市",
		"province": "湖南省",
		"district": "雨湖区"
	},
	{
		"Id": 274,
		"name": "南京市测绘勘察研究院股份有限公司",
		"coordinate": {
			"longitude": "118.739494",
			"latitude": "31.988926"
		},
		"city": "南京市",
		"province": "江苏省",
		"district": "建邺区"
	},
	{
		"Id": 275,
		"name": "南京师范大学",
		"coordinate": {
			"longitude": "118.911954",
			"latitude": "32.093466"
		},
		"city": "南京市",
		"province": "江苏省",
		"district": "栖霞区"
	},
	{
		"Id": 276,
		"name": "国核电力规划设计研究院有限公司",
		"coordinate": {
			"longitude": "116.177467",
			"latitude": "40.056919"
		},
		"city": "北京市",
		"province": "北京市",
		"district": "海淀区"
	},
	{
		"Id": 277,
		"name": "如皋市农林水利综合执法大队",
		"coordinate": {
			"longitude": "120.561539",
			"latitude": "32.368213"
		},
		"city": "南通市",
		"province": "江苏省",
		"district": "如皋市"
	},
	{
		"Id": 278,
		"name": "如皋市林业站",
		"coordinate": {
			"longitude": "120.561750",
			"latitude": "32.368086"
		},
		"city": "南通市",
		"province": "江苏省",
		"district": "如皋市"
	},
	{
		"Id": 279,
		"name": "贵州省地矿局地球物理地球化学勘查院",
		"coordinate": {
			"longitude": "106.776409",
			"latitude": "26.640900"
		},
		"city": "贵阳市",
		"province": "贵州省",
		"district": "乌当区"
	},
	{
		"Id": 280,
		"name": "厦门理工学院计算机与信息工程学院空间信息科学与工程系",
		"coordinate": {
			"longitude": "118.086858",
			"latitude": "24.624142"
		},
		"city": "厦门市",
		"province": "福建省",
		"district": "集美区"
	},
	{
		"Id": 281,
		"name": "军事科学院国防工程研究院",
		"coordinate": {
			"longitude": "87.610992",
			"latitude": "43.816055"
		},
		"city": "乌鲁木齐市",
		"province": "新疆维吾尔自治区",
		"district": "水磨沟区"
	},
	{
		"Id": 282,
		"name": "南通市江海测绘院有限公司",
		"coordinate": {
			"longitude": "120.907071",
			"latitude": "32.024902"
		},
		"city": "南通市",
		"province": "江苏省",
		"district": "崇川区"
	},
	{
		"Id": 283,
		"name": "上海同济城市规划设计研究院有限公司数字规划技术研究中心",
		"coordinate": {
			"longitude": "121.505033",
			"latitude": "31.286837"
		},
		"city": "上海市",
		"province": "上海市",
		"district": "杨浦区"
	},
	{
		"Id": 284,
		"name": "中国地质大学(武汉)工程学院",
		"coordinate": {
			"longitude": "114.400434",
			"latitude": "30.519246"
		},
		"city": "武汉市",
		"province": "湖北省",
		"district": "洪山区"
	},
	{
		"Id": 285,
		"name": "西南交通大学",
		"coordinate": {
			"longitude": "103.445503",
			"latitude": "29.575670"
		},
		"city": "乐山市",
		"province": "四川省",
		"district": "峨眉山市"
	},
	{
		"Id": 286,
		"name": "中国建筑西南设计研究院",
		"coordinate": {
			"longitude": "104.066422",
			"latitude": "30.586937"
		},
		"city": "成都市",
		"province": "四川省",
		"district": "武侯区"
	},
	{
		"Id": 287,
		"name": "河南大学数据与知识工程研究所",
		"coordinate": {
			"longitude": "113.541989",
			"latitude": "34.792565"
		},
		"city": "郑州市",
		"province": "河南省",
		"district": "中原区"
	},
	{
		"Id": 288,
		"name": "河南大学计算机与信息工程学院",
		"coordinate": {
			"longitude": "113.662656",
			"latitude": "34.803361"
		},
		"city": "郑州市",
		"province": "河南省",
		"district": "金水区"
	},
	{
		"Id": 289,
		"name": "河南大学河南省大数据分析与处理重点实验室",
		"coordinate": {
			"longitude": "113.541989",
			"latitude": "34.792565"
		},
		"city": "郑州市",
		"province": "河南省",
		"district": "中原区"
	},
	{
		"Id": 290,
		"name": "中国科学院遥感与数字地球研究所",
		"coordinate": {
			"longitude": "116.715622",
			"latitude": "40.411160"
		},
		"city": "北京市",
		"province": "北京市",
		"district": "怀柔区"
	},
	{
		"Id": 291,
		"name": "新疆农业大学林业研究所",
		"coordinate": {
			"longitude": "87.567450",
			"latitude": "43.810825"
		},
		"city": "乌鲁木齐市",
		"province": "新疆维吾尔自治区",
		"district": "沙依巴克区"
	},
	{
		"Id": 292,
		"name": "信阳市房屋产权产籍监理处",
		"coordinate": {
			"longitude": "114.091023",
			"latitude": "32.146983"
		},
		"city": "信阳市",
		"province": "河南省",
		"district": []
	},
	{
		"Id": 293,
		"name": "江苏方天电力技术有限公司",
		"coordinate": {
			"longitude": "118.843469",
			"latitude": "31.931412"
		},
		"city": "南京市",
		"province": "江苏省",
		"district": "江宁区"
	},
	{
		"Id": 294,
		"name": "江苏联能电力科学研究院有限公司",
		"coordinate": {
			"longitude": "119.933229",
			"latitude": "32.491584"
		},
		"city": "泰州市",
		"province": "江苏省",
		"district": "海陵区"
	},
	{
		"Id": 295,
		"name": "沈阳晨光弗泰波纹管有限公司",
		"coordinate": {
			"longitude": "123.212937",
			"latitude": "41.762311"
		},
		"city": "沈阳市",
		"province": "辽宁省",
		"district": "铁西区"
	},
	{
		"Id": 296,
		"name": "内江师范学院地理与资源科学学院",
		"coordinate": {
			"longitude": "105.049194",
			"latitude": "29.588243"
		},
		"city": "内江市",
		"province": "四川省",
		"district": "东兴区"
	},
	{
		"Id": 297,
		"name": "宁乡市国土资源局",
		"coordinate": {
			"longitude": "112.339557",
			"latitude": "27.980229"
		},
		"city": "长沙市",
		"province": "湖南省",
		"district": "宁乡市"
	},
	{
		"Id": 298,
		"name": "北华大学",
		"coordinate": {
			"longitude": "126.562866",
			"latitude": "43.810677"
		},
		"city": "吉林市",
		"province": "吉林省",
		"district": "丰满区"
	},
	{
		"Id": 299,
		"name": "安徽理工大学测绘学院",
		"coordinate": {
			"longitude": "117.276282",
			"latitude": "31.895694"
		},
		"city": "合肥市",
		"province": "安徽省",
		"district": "庐阳区"
	},
	{
		"Id": 300,
		"name": "包头市水文勘测局",
		"coordinate": {
			"longitude": "109.870924",
			"latitude": "40.662143"
		},
		"city": "包头市",
		"province": "内蒙古自治区",
		"district": "青山区"
	},
	{
		"Id": 301,
		"name": "重庆市地理信息中心",
		"coordinate": {
			"longitude": "106.510496",
			"latitude": "29.614128"
		},
		"city": "重庆市",
		"province": "重庆市",
		"district": "渝北区"
	},
	{
		"Id": 302,
		"name": "北京未来城市设计高精尖创新中心北京建筑大学",
		"coordinate": {
			"longitude": "116.341093",
			"latitude": "39.936144"
		},
		"city": "北京市",
		"province": "北京市",
		"district": "西城区"
	},
	{
		"Id": 303,
		"name": "北京市建筑遗产精细重构与健康监测重点实验室",
		"coordinate": {
			"longitude": "116.307408",
			"latitude": "39.689651"
		},
		"city": "北京市",
		"province": "北京市",
		"district": "大兴区"
	},
	{
		"Id": 304,
		"name": "西南石油大学地球科学与技术学院",
		"coordinate": {
			"longitude": "104.185204",
			"latitude": "30.831804"
		},
		"city": "成都市",
		"province": "四川省",
		"district": "新都区"
	},
	{
		"Id": 305,
		"name": "西南交通大学地球科学与环境工程学院",
		"coordinate": {
			"longitude": "103.988297",
			"latitude": "30.763901"
		},
		"city": "成都市",
		"province": "四川省",
		"district": "郫都区"
	},
	{
		"Id": 306,
		"name": "四川师范大学地理与资源科学学院",
		"coordinate": {
			"longitude": "104.123474",
			"latitude": "30.610054"
		},
		"city": "成都市",
		"province": "四川省",
		"district": "锦江区"
	},
	{
		"Id": 307,
		"name": "黑龙江地理信息工程院",
		"coordinate": {
			"longitude": "126.626135",
			"latitude": "45.705250"
		},
		"city": "哈尔滨市",
		"province": "黑龙江省",
		"district": "南岗区"
	},
	{
		"Id": 308,
		"name": "黑龙江省电力勘察设计研究院",
		"coordinate": {
			"longitude": "126.512646",
			"latitude": "45.706341"
		},
		"city": "哈尔滨市",
		"province": "黑龙江省",
		"district": "道里区"
	},
	{
		"Id": 309,
		"name": "国网吉林省电力有限公司电力科学研究院",
		"coordinate": {
			"longitude": "125.324589",
			"latitude": "43.869358"
		},
		"city": "长春市",
		"province": "吉林省",
		"district": "朝阳区"
	},
	{
		"Id": 310,
		"name": "国网吉林省电力有限公司",
		"coordinate": {
			"longitude": "125.324176",
			"latitude": "43.867150"
		},
		"city": "长春市",
		"province": "吉林省",
		"district": "朝阳区"
	},
	{
		"Id": 311,
		"name": "大唐东北电力试验研究院有限公司",
		"coordinate": {
			"longitude": "125.401746",
			"latitude": "43.988469"
		},
		"city": "长春市",
		"province": "吉林省",
		"district": "宽城区"
	},
	{
		"Id": 312,
		"name": "国网湖北省电力有限公司襄阳供电公司",
		"coordinate": {
			"longitude": "112.135829",
			"latitude": "32.041503"
		},
		"city": "襄阳市",
		"province": "湖北省",
		"district": "樊城区"
	},
	{
		"Id": 313,
		"name": "贵州电网有限责任公司电力科学研究院",
		"coordinate": {
			"longitude": "106.722075",
			"latitude": "26.562163"
		},
		"city": "贵阳市",
		"province": "贵州省",
		"district": "南明区"
	},
	{
		"Id": 314,
		"name": "重庆大学",
		"coordinate": {
			"longitude": "106.467730",
			"latitude": "29.561465"
		},
		"city": "重庆市",
		"province": "重庆市",
		"district": "沙坪坝区"
	},
	{
		"Id": 315,
		"name": "西安思源学院",
		"coordinate": {
			"longitude": "109.079772",
			"latitude": "34.234871"
		},
		"city": "西安市",
		"province": "陕西省",
		"district": "灞桥区"
	},
	{
		"Id": 316,
		"name": "中国地质大学(武汉)信息工程学院",
		"coordinate": {
			"longitude": "114.400434",
			"latitude": "30.519246"
		},
		"city": "武汉市",
		"province": "湖北省",
		"district": "洪山区"
	},
	{
		"Id": 317,
		"name": "陕西水环境工程勘察设计研究院",
		"coordinate": {
			"longitude": "110.384838",
			"latitude": "35.282500"
		},
		"city": "渭南市",
		"province": "陕西省",
		"district": "合阳县"
	},
	{
		"Id": 318,
		"name": "陕西液化天然气投资发展有限公司",
		"coordinate": {
			"longitude": "108.127218",
			"latitude": "34.259910"
		},
		"city": "咸阳市",
		"province": "陕西省",
		"district": "杨陵区"
	},
	{
		"Id": 319,
		"name": "云南云测科技有限责任公司",
		"coordinate": {
			"longitude": "102.710002",
			"latitude": "25.045806"
		},
		"city": [],
		"province": "云南省",
		"district": []
	},
	{
		"Id": 320,
		"name": "山东省地质测绘院",
		"coordinate": {
			"longitude": "117.050506",
			"latitude": "36.666675"
		},
		"city": "济南市",
		"province": "山东省",
		"district": "历下区"
	},
	{
		"Id": 321,
		"name": "镇江市环境监测中心站",
		"coordinate": {
			"longitude": "119.492135",
			"latitude": "32.167596"
		},
		"city": "镇江市",
		"province": "江苏省",
		"district": "京口区"
	},
	{
		"Id": 322,
		"name": "平高集团有限公司",
		"coordinate": {
			"longitude": "106.259560",
			"latitude": "23.641470"
		},
		"city": "百色市",
		"province": "广西壮族自治区",
		"district": "德保县"
	},
	{
		"Id": 323,
		"name": "天津城市基础设施建设投资集团有限公司",
		"coordinate": {
			"longitude": "117.213404",
			"latitude": "39.121860"
		},
		"city": "天津市",
		"province": "天津市",
		"district": "和平区"
	},
	{
		"Id": 324,
		"name": "福州地铁集团有限公司",
		"coordinate": {
			"longitude": "119.310500",
			"latitude": "26.057870"
		},
		"city": "福州市",
		"province": "福建省",
		"district": "台江区"
	},
	{
		"Id": 325,
		"name": "上海同济城市规划设计研究院",
		"coordinate": {
			"longitude": "121.505008",
			"latitude": "31.286549"
		},
		"city": "上海市",
		"province": "上海市",
		"district": "杨浦区"
	},
	{
		"Id": 326,
		"name": "韶关市城乡规划市政设计研究院",
		"coordinate": {
			"longitude": "113.548661",
			"latitude": "24.749955"
		},
		"city": "韶关市",
		"province": "广东省",
		"district": "武江区"
	},
	{
		"Id": 327,
		"name": "国网江西省电力有限公司赣西供电分公司",
		"coordinate": {
			"longitude": "115.806405",
			"latitude": "28.734673"
		},
		"city": "南昌市",
		"province": "江西省",
		"district": "青山湖区"
	},
	{
		"Id": 328,
		"name": "国网湖南省电力公司长沙供电分公司",
		"coordinate": {
			"longitude": "113.088669",
			"latitude": "28.222171"
		},
		"city": "长沙市",
		"province": "湖南省",
		"district": "长沙县"
	},
	{
		"Id": 329,
		"name": "福建福清核电有限公司",
		"coordinate": {
			"longitude": "119.454850",
			"latitude": "25.455166"
		},
		"city": "福州市",
		"province": "福建省",
		"district": "福清市"
	},
	{
		"Id": 330,
		"name": "新疆玛纳斯河流域管理处",
		"coordinate": {
			"longitude": "82.884500",
			"latitude": "44.607247"
		},
		"city": "博尔塔拉蒙古自治州",
		"province": "新疆维吾尔自治区",
		"district": "精河县"
	},
	{
		"Id": 331,
		"name": "水利部南京水利水文自动化研究所",
		"coordinate": {
			"longitude": "118.763290",
			"latitude": "31.960544"
		},
		"city": "南京市",
		"province": "江苏省",
		"district": "雨花台区"
	},
	{
		"Id": 332,
		"name": "海南电网海南输变电检修分公司",
		"coordinate": {
			"longitude": "110.288244",
			"latitude": "20.013279"
		},
		"city": "海口市",
		"province": "海南省",
		"district": "秀英区"
	},
	{
		"Id": 333,
		"name": "南瑞集团(国网电力科学研究院)有限公司",
		"coordinate": {
			"longitude": "117.100724",
			"latitude": "36.188193"
		},
		"city": "泰安市",
		"province": "山东省",
		"district": "泰山区"
	},
	{
		"Id": 334,
		"name": "上海交通大学",
		"coordinate": {
			"longitude": "121.425413",
			"latitude": "31.206075"
		},
		"city": "上海市",
		"province": "上海市",
		"district": "长宁区"
	},
	{
		"Id": 335,
		"name": "曲靖市气象局",
		"coordinate": {
			"longitude": "103.801612",
			"latitude": "25.498939"
		},
		"city": "曲靖市",
		"province": "云南省",
		"district": "麒麟区"
	},
	{
		"Id": 336,
		"name": "云南省气候中心",
		"coordinate": {
			"longitude": "102.706219",
			"latitude": "25.025500"
		},
		"city": "昆明市",
		"province": "云南省",
		"district": "西山区"
	},
	{
		"Id": 337,
		"name": "云南烟草曲靖市公司",
		"coordinate": {
			"longitude": "103.804700",
			"latitude": "25.502000"
		},
		"city": "曲靖市",
		"province": "云南省",
		"district": "麒麟区"
	},
	{
		"Id": 338,
		"name": "龙岩市气象局",
		"coordinate": {
			"longitude": "117.031608",
			"latitude": "25.095996"
		},
		"city": "龙岩市",
		"province": "福建省",
		"district": "新罗区"
	},
	{
		"Id": 339,
		"name": "龙岩市新罗区气象局",
		"coordinate": {
			"longitude": "117.018435",
			"latitude": "25.077833"
		},
		"city": "龙岩市",
		"province": "福建省",
		"district": "新罗区"
	},
	{
		"Id": 340,
		"name": "Institute for Cartography",
		"coordinate": {
			"longitude": 0,
			"latitude": 0
		},
		"city": "",
		"province": "",
		"district": ""
	},
	{
		"Id": 341,
		"name": " Geosciences Department",
		"coordinate": {
			"longitude": 0,
			"latitude": 0
		},
		"city": "",
		"province": "",
		"district": ""
	},
	{
		"Id": 342,
		"name": "TU Dresden",
		"coordinate": {
			"longitude": 0,
			"latitude": 0
		},
		"city": "",
		"province": "",
		"district": ""
	},
	{
		"Id": 343,
		"name": "中铁第一勘察设计院集团有限公司",
		"coordinate": {
			"longitude": "94.368047",
			"latitude": "29.638259"
		},
		"city": "林芝市",
		"province": "西藏自治区",
		"district": "巴宜区"
	},
	{
		"Id": 344,
		"name": "哈尔滨工业大学建筑学院",
		"coordinate": {
			"longitude": "126.638527",
			"latitude": "45.751986"
		},
		"city": "哈尔滨市",
		"province": "黑龙江省",
		"district": "南岗区"
	},
	{
		"Id": 345,
		"name": "哈尔滨工业大学建筑学院景观系",
		"coordinate": {
			"longitude": "126.638527",
			"latitude": "45.751986"
		},
		"city": "哈尔滨市",
		"province": "黑龙江省",
		"district": "南岗区"
	},
	{
		"Id": 346,
		"name": "中国风景园林学会2018年会论文集",
		"coordinate": {
			"longitude": "104.035624",
			"latitude": "30.677260"
		},
		"city": "成都市",
		"province": "四川省",
		"district": "金牛区"
	},
	{
		"Id": 347,
		"name": "池州学院资源环境学院",
		"coordinate": {
			"longitude": "117.567732",
			"latitude": "30.643318"
		},
		"city": "池州市",
		"province": "安徽省",
		"district": "贵池区"
	},
	{
		"Id": 348,
		"name": "陕西理工大学历史文化与旅游学院",
		"coordinate": {
			"longitude": 0,
			"latitude": 0
		},
		"city": "",
		"province": "",
		"district": ""
	},
	{
		"Id": 349,
		"name": "广西医科大学人文社会科学学院",
		"coordinate": {
			"longitude": "110.241800",
			"latitude": "22.705434"
		},
		"city": "玉林市",
		"province": "广西壮族自治区",
		"district": "北流市"
	},
	{
		"Id": 350,
		"name": "河源市气象局",
		"coordinate": {
			"longitude": "114.712831",
			"latitude": "23.764982"
		},
		"city": "河源市",
		"province": "广东省",
		"district": "源城区"
	},
	{
		"Id": 351,
		"name": "四川理工学院自动化与信息工程学院",
		"coordinate": {
			"longitude": "103.818008",
			"latitude": "30.691219"
		},
		"city": "成都市",
		"province": "四川省",
		"district": "温江区"
	},
	{
		"Id": 352,
		"name": "咸阳职业技术学院",
		"coordinate": {
			"longitude": "108.734763",
			"latitude": "34.294643"
		},
		"city": "咸阳市",
		"province": "陕西省",
		"district": "秦都区"
	},
	{
		"Id": 353,
		"name": "广州大学地理科学学院",
		"coordinate": {
			"longitude": "113.369384",
			"latitude": "23.037876"
		},
		"city": "广州市",
		"province": "广东省",
		"district": "番禺区"
	},
	{
		"Id": 354,
		"name": "浙江大学农业与生物技术学院",
		"coordinate": {
			"longitude": "120.091573",
			"latitude": "30.296621"
		},
		"city": "杭州市",
		"province": "浙江省",
		"district": "西湖区"
	},
	{
		"Id": 355,
		"name": "武汉市疾病预防控制中心",
		"coordinate": {
			"longitude": "114.279464",
			"latitude": "30.589083"
		},
		"city": "武汉市",
		"province": "湖北省",
		"district": "江汉区"
	},
	{
		"Id": 356,
		"name": "中电科新型智慧城市研究院有限公司",
		"coordinate": {
			"longitude": "120.176155",
			"latitude": "35.970299"
		},
		"city": "青岛市",
		"province": "山东省",
		"district": "黄岛区"
	},
	{
		"Id": 357,
		"name": "陕西师范大学地理科学与旅游学院",
		"coordinate": {
			"longitude": "108.953253",
			"latitude": "34.206264"
		},
		"city": "西安市",
		"province": "陕西省",
		"district": "雁塔区"
	},
	{
		"Id": 358,
		"name": "深圳市海平峰水务技术工程有限公司",
		"coordinate": {
			"longitude": "114.129605",
			"latitude": "22.567498"
		},
		"city": "深圳市",
		"province": "广东省",
		"district": "罗湖区"
	},
	{
		"Id": 359,
		"name": "华北电力大学电力系",
		"coordinate": {
			"longitude": "116.333580",
			"latitude": "39.988014"
		},
		"city": "北京市",
		"province": "北京市",
		"district": "海淀区"
	},
	{
		"Id": 360,
		"name": "华北电力大学云南电网有限责任公司研究生工作站",
		"coordinate": {
			"longitude": "102.681979",
			"latitude": "25.070796"
		},
		"city": "昆明市",
		"province": "云南省",
		"district": "五华区"
	},
	{
		"Id": 361,
		"name": "河南平芝高压开关有限公司",
		"coordinate": {
			"longitude": "113.713062",
			"latitude": "34.673657"
		},
		"city": "郑州市",
		"province": "河南省",
		"district": "管城回族区"
	},
	{
		"Id": 362,
		"name": "武汉大学动力与机械学院",
		"coordinate": {
			"longitude": "114.363107",
			"latitude": "30.544691"
		},
		"city": "武汉市",
		"province": "湖北省",
		"district": "武昌区"
	},
	{
		"Id": 363,
		"name": "上海交通大学电气工程系",
		"coordinate": {
			"longitude": "121.439826",
			"latitude": "31.022413"
		},
		"city": "上海市",
		"province": "上海市",
		"district": "闵行区"
	},
	{
		"Id": 364,
		"name": "西北大学城市与环境学院",
		"coordinate": {
			"longitude": "108.878830",
			"latitude": "34.147617"
		},
		"city": "西安市",
		"province": "陕西省",
		"district": "长安区"
	},
	{
		"Id": 365,
		"name": "太原师范学院地理科学学院",
		"coordinate": {
			"longitude": "112.547000",
			"latitude": "37.834500"
		},
		"city": "太原市",
		"province": "山西省",
		"district": "小店区"
	},
	{
		"Id": 366,
		"name": "云南电网有限责任公司电网规划研究中心",
		"coordinate": {
			"longitude": "102.725151",
			"latitude": "25.033072"
		},
		"city": "昆明市",
		"province": "云南省",
		"district": "官渡区"
	},
	{
		"Id": 367,
		"name": "辽东学院城市建设学院",
		"coordinate": {
			"longitude": "123.420635",
			"latitude": "41.677701"
		},
		"city": "沈阳市",
		"province": "辽宁省",
		"district": "浑南区"
	},
	{
		"Id": 368,
		"name": "中设设计集团股份有限公司智能交通设计研究中心",
		"coordinate": {
			"longitude": "112.410034",
			"latitude": "34.627407"
		},
		"city": "洛阳市",
		"province": "河南省",
		"district": "涧西区"
	},
	{
		"Id": 369,
		"name": "中国矿业大学建筑与设计学院",
		"coordinate": {
			"longitude": "117.200020",
			"latitude": "34.221153"
		},
		"city": "徐州市",
		"province": "江苏省",
		"district": "泉山区"
	},
	{
		"Id": 370,
		"name": "台州市经济建设规划院",
		"coordinate": {
			"longitude": "121.433718",
			"latitude": "28.655956"
		},
		"city": "台州市",
		"province": "浙江省",
		"district": "椒江区"
	},
	{
		"Id": 371,
		"name": "北京市第三十五中学",
		"coordinate": {
			"longitude": "116.354915",
			"latitude": "39.919637"
		},
		"city": "北京市",
		"province": "北京市",
		"district": "西城区"
	},
	{
		"Id": 372,
		"name": "锦州医科大学附属第三医院",
		"coordinate": {
			"longitude": "121.148140",
			"latitude": "41.121006"
		},
		"city": "锦州市",
		"province": "辽宁省",
		"district": "凌河区"
	},
	{
		"Id": 373,
		"name": "中国地质大学<北京>地球科学与资源学院",
		"coordinate": {
			"longitude": "116.351439",
			"latitude": "39.991815"
		},
		"city": "北京市",
		"province": "北京市",
		"district": "海淀区"
	},
	{
		"Id": 374,
		"name": "中国地质科学院地质力学研究所",
		"coordinate": {
			"longitude": "116.316010",
			"latitude": "39.946510"
		},
		"city": "北京市",
		"province": "北京市",
		"district": "海淀区"
	},
	{
		"Id": 375,
		"name": "湖北长江三峡滑坡国家野外科学观测研究站",
		"coordinate": {
			"longitude": "114.407610",
			"latitude": "30.482470"
		},
		"city": "武汉市",
		"province": "湖北省",
		"district": "洪山区"
	},
	{
		"Id": 376,
		"name": "三峡大学地质灾害防治研究院",
		"coordinate": {
			"longitude": "112.412033",
			"latitude": "34.635212"
		},
		"city": "洛阳市",
		"province": "河南省",
		"district": "涧西区"
	},
	{
		"Id": 377,
		"name": "甘肃安西极旱荒漠国家级自然保护区管理局",
		"coordinate": {
			"longitude": "95.773651",
			"latitude": "40.515655"
		},
		"city": "酒泉市",
		"province": "甘肃省",
		"district": "瓜州县"
	},
	{
		"Id": 378,
		"name": "河南工业大学信息科学与工程学院",
		"coordinate": {
			"longitude": "113.550709",
			"latitude": "34.829096"
		},
		"city": "郑州市",
		"province": "河南省",
		"district": "中原区"
	},
	{
		"Id": 379,
		"name": "湖南省地质矿产勘查开发局四〇二队",
		"coordinate": {
			"longitude": "112.993301",
			"latitude": "28.122995"
		},
		"city": "长沙市",
		"province": "湖南省",
		"district": "天心区"
	},
	{
		"Id": 380,
		"name": "甘肃省有色金属地质勘查局兰州矿产勘查院",
		"coordinate": {
			"longitude": "103.807931",
			"latitude": "36.098994"
		},
		"city": "兰州市",
		"province": "甘肃省",
		"district": "城关区"
	},
	{
		"Id": 381,
		"name": "湖南省勘测设计院",
		"coordinate": {
			"longitude": "112.992707",
			"latitude": "28.124288"
		},
		"city": "长沙市",
		"province": "湖南省",
		"district": "天心区"
	},
	{
		"Id": 382,
		"name": "湖南省第二测绘院",
		"coordinate": {
			"longitude": "112.978238",
			"latitude": "28.028931"
		},
		"city": "长沙市",
		"province": "湖南省",
		"district": "天心区"
	},
	{
		"Id": 383,
		"name": "山西水利职业技术学院",
		"coordinate": {
			"longitude": "112.531693",
			"latitude": "37.889714"
		},
		"city": "太原市",
		"province": "山西省",
		"district": "尖草坪区"
	},
	{
		"Id": 384,
		"name": "河海大学地理信息科学与工程研究所",
		"coordinate": {
			"longitude": "119.976662",
			"latitude": "31.821463"
		},
		"city": "常州市",
		"province": "江苏省",
		"district": "新北区"
	},
	{
		"Id": 385,
		"name": "西南科技大学环境与资源学院",
		"coordinate": {
			"longitude": 0,
			"latitude": 0
		},
		"city": "",
		"province": "",
		"district": ""
	},
	{
		"Id": 386,
		"name": "四川测绘地理信息局测绘技术服务中心",
		"coordinate": {
			"longitude": "104.074522",
			"latitude": "30.690382"
		},
		"city": "成都市",
		"province": "四川省",
		"district": "金牛区"
	},
	{
		"Id": 387,
		"name": "国网江苏省电力有限公司宿迁供电分公司",
		"coordinate": {
			"longitude": "118.275228",
			"latitude": "33.963186"
		},
		"city": "宿迁市",
		"province": "江苏省",
		"district": []
	},
	{
		"Id": 388,
		"name": "国网山东省电力公司冠县供电公司",
		"coordinate": {
			"longitude": "115.450157",
			"latitude": "36.479286"
		},
		"city": "聊城市",
		"province": "山东省",
		"district": "冠县"
	},
	{
		"Id": 389,
		"name": "中山供电局试验研究所",
		"coordinate": {
			"longitude": "113.354485",
			"latitude": "22.518861"
		},
		"city": "中山市",
		"province": "广东省",
		"district": []
	},
	{
		"Id": 390,
		"name": "广西师范学院地理科学与规划学院",
		"coordinate": {
			"longitude": "108.319313",
			"latitude": "22.842211"
		},
		"city": "南宁市",
		"province": "广西壮族自治区",
		"district": "西乡塘区"
	},
	{
		"Id": 391,
		"name": "广西师范学院国土资源与测绘学院",
		"coordinate": {
			"longitude": "108.319313",
			"latitude": "22.842211"
		},
		"city": "南宁市",
		"province": "广西壮族自治区",
		"district": "西乡塘区"
	},
	{
		"Id": 392,
		"name": "广西桂能软件有限公司",
		"coordinate": {
			"longitude": "108.341660",
			"latitude": "22.825375"
		},
		"city": "南宁市",
		"province": "广西壮族自治区",
		"district": "青秀区"
	},
	{
		"Id": 393,
		"name": "中国铁路设计集团有限公司",
		"coordinate": {
			"longitude": "112.204749",
			"latitude": "22.701360"
		},
		"city": "云浮市",
		"province": "广东省",
		"district": "新兴县"
	},
	{
		"Id": 394,
		"name": "中国水利水电科学研究院",
		"coordinate": {
			"longitude": "117.311432",
			"latitude": "33.317581"
		},
		"city": "蚌埠市",
		"province": "安徽省",
		"district": "固镇县"
	},
	{
		"Id": 395,
		"name": "华北水利水电大学",
		"coordinate": {
			"longitude": "113.674683",
			"latitude": "34.811325"
		},
		"city": "郑州市",
		"province": "河南省",
		"district": "金水区"
	},
	{
		"Id": 396,
		"name": "合肥工业大学土木与水利工程学院",
		"coordinate": {
			"longitude": "117.292154",
			"latitude": "31.844822"
		},
		"city": "合肥市",
		"province": "安徽省",
		"district": "包河区"
	},
	{
		"Id": 397,
		"name": "合肥工业大学计算机与信息学院",
		"coordinate": {
			"longitude": "117.296392",
			"latitude": "31.844127"
		},
		"city": "合肥市",
		"province": "安徽省",
		"district": "包河区"
	},
	{
		"Id": 398,
		"name": "徐州市消防支队",
		"coordinate": {
			"longitude": "117.171271",
			"latitude": "34.219622"
		},
		"city": "徐州市",
		"province": "江苏省",
		"district": "泉山区"
	},
	{
		"Id": 399,
		"name": "中国矿业大学安全工程学院",
		"coordinate": {
			"longitude": "117.200020",
			"latitude": "34.221153"
		},
		"city": "徐州市",
		"province": "江苏省",
		"district": "泉山区"
	},
	{
		"Id": 400,
		"name": "阳泉市国土资源勘测队",
		"coordinate": {
			"longitude": "113.580508",
			"latitude": "37.852689"
		},
		"city": "阳泉市",
		"province": "山西省",
		"district": "城区"
	},
	{
		"Id": 401,
		"name": "武汉职业技术学院",
		"coordinate": {
			"longitude": "114.365837",
			"latitude": "30.524707"
		},
		"city": "武汉市",
		"province": "湖北省",
		"district": "洪山区"
	},
	{
		"Id": 402,
		"name": "曲阜师范大学地理与旅游学院",
		"coordinate": {
			"longitude": "116.972711",
			"latitude": "35.596350"
		},
		"city": "济宁市",
		"province": "山东省",
		"district": "曲阜市"
	},
	{
		"Id": 403,
		"name": "南四湖湿地生态与环境保护省高校重点实验室",
		"coordinate": {
			"longitude": "106.142937",
			"latitude": "39.076351"
		},
		"city": "石嘴山市",
		"province": "宁夏回族自治区",
		"district": "大武口区"
	},
	{
		"Id": 404,
		"name": "陕西延长石油(集团)管道运输公司",
		"coordinate": {
			"longitude": "109.441265",
			"latitude": "36.619635"
		},
		"city": "延安市",
		"province": "陕西省",
		"district": "宝塔区"
	},
	{
		"Id": 405,
		"name": "同济大学土木工程学院地下建筑与工程系",
		"coordinate": {
			"longitude": "76.099449",
			"latitude": "39.440326"
		},
		"city": "喀什地区",
		"province": "新疆维吾尔自治区",
		"district": "喀什市"
	},
	{
		"Id": 406,
		"name": "广州地铁设计研究院有限公司",
		"coordinate": {
			"longitude": "113.260372",
			"latitude": "23.145412"
		},
		"city": "广州市",
		"province": "广东省",
		"district": "越秀区"
	},
	{
		"Id": 407,
		"name": "西南石油大学土木工程与建筑学院",
		"coordinate": {
			"longitude": "104.183464",
			"latitude": "30.831020"
		},
		"city": "成都市",
		"province": "四川省",
		"district": "新都区"
	},
	{
		"Id": 408,
		"name": "嘉陵江亭子口水利水电开发有限公司",
		"coordinate": {
			"longitude": "105.928864",
			"latitude": "31.750928"
		},
		"city": "广元市",
		"province": "四川省",
		"district": "苍溪县"
	},
	{
		"Id": 409,
		"name": "迪肯大学建筑系",
		"coordinate": {
			"longitude": 116.3485660138979,
			"latitude": 39.94050604095734
		},
		"city": "",
		"province": "",
		"district": ""
	},
	{
		"Id": 410,
		"name": "山东建筑大学建筑城规学院",
		"coordinate": {
			"longitude": "117.189956",
			"latitude": "36.677347"
		},
		"city": "济南市",
		"province": "山东省",
		"district": "历城区"
	},
	{
		"Id": 411,
		"name": "山东省绿色建筑协同创新中心",
		"coordinate": {
			"longitude": "117.204457",
			"latitude": "36.174633"
		},
		"city": "泰安市",
		"province": "山东省",
		"district": "泰山区"
	},
	{
		"Id": 412,
		"name": "山西省黄河万家寨水务集团有限公司",
		"coordinate": {
			"longitude": "112.565704",
			"latitude": "37.839082"
		},
		"city": "太原市",
		"province": "山西省",
		"district": "迎泽区"
	},
	{
		"Id": 413,
		"name": "东北电力大学电气工程学院",
		"coordinate": {
			"longitude": "109.003448",
			"latitude": "34.246463"
		},
		"city": "西安市",
		"province": "陕西省",
		"district": "碑林区"
	},
	{
		"Id": 414,
		"name": "贵阳市森林资源管理站",
		"coordinate": {
			"longitude": "106.693130",
			"latitude": "26.564093"
		},
		"city": "贵阳市",
		"province": "贵州省",
		"district": "南明区"
	},
	{
		"Id": 415,
		"name": "陕西理工大学陕西省资源生物重点实验室",
		"coordinate": {
			"longitude": "108.993220",
			"latitude": "34.251835"
		},
		"city": "西安市",
		"province": "陕西省",
		"district": "碑林区"
	},
	{
		"Id": 416,
		"name": "陕西理工大学秦巴蓝莓研究所",
		"coordinate": {
			"longitude": "107.054662",
			"latitude": "33.070776"
		},
		"city": "汉中市",
		"province": "陕西省",
		"district": "汉台区"
	},
	{
		"Id": 417,
		"name": "陕南秦巴山区生物资源综合开发协同创新中心",
		"coordinate": {
			"longitude": "115.756734",
			"latitude": "33.854517"
		},
		"city": "亳州市",
		"province": "安徽省",
		"district": "谯城区"
	},
	{
		"Id": 418,
		"name": "陕西定军山蓝莓科技有限公司",
		"coordinate": {
			"longitude": "106.678016",
			"latitude": "33.153637"
		},
		"city": "汉中市",
		"province": "陕西省",
		"district": "勉县"
	},
	{
		"Id": 419,
		"name": "汉中市农业科学研究所",
		"coordinate": {
			"longitude": "107.040527",
			"latitude": "33.080615"
		},
		"city": "汉中市",
		"province": "陕西省",
		"district": "汉台区"
	},
	{
		"Id": 420,
		"name": "宁夏大学资源环境学院",
		"coordinate": {
			"longitude": "106.133411",
			"latitude": "38.501633"
		},
		"city": "银川市",
		"province": "宁夏回族自治区",
		"district": "西夏区"
	},
	{
		"Id": 421,
		"name": "中核第四研究设计工程有限公司",
		"coordinate": {
			"longitude": "114.534278",
			"latitude": "38.022950"
		},
		"city": "石家庄市",
		"province": "河北省",
		"district": "裕华区"
	},
	{
		"Id": 422,
		"name": "中国地质大学(北京)地球科学与资源学院",
		"coordinate": {
			"longitude": "116.351439",
			"latitude": "39.991815"
		},
		"city": "北京市",
		"province": "北京市",
		"district": "海淀区"
	},
	{
		"Id": 423,
		"name": "哈尔滨师范大学",
		"coordinate": {
			"longitude": "126.621270",
			"latitude": "45.723665"
		},
		"city": "哈尔滨市",
		"province": "黑龙江省",
		"district": "南岗区"
	},
	{
		"Id": 424,
		"name": "黑龙江省地质调查研究总院",
		"coordinate": {
			"longitude": "126.675158",
			"latitude": "45.730289"
		},
		"city": "哈尔滨市",
		"province": "黑龙江省",
		"district": "香坊区"
	},
	{
		"Id": 425,
		"name": "南京林业大学",
		"coordinate": {
			"longitude": "118.816826",
			"latitude": "32.078682"
		},
		"city": "南京市",
		"province": "江苏省",
		"district": "玄武区"
	},
	{
		"Id": 426,
		"name": "福建大地土地评估房地产估价有限公司",
		"coordinate": {
			"longitude": "118.266202",
			"latitude": "25.759225"
		},
		"city": "泉州市",
		"province": "福建省",
		"district": "德化县"
	},
	{
		"Id": 427,
		"name": "中国矿业大学(北京)国家煤矿水害防治工程技术研究中心",
		"coordinate": {
			"longitude": "116.349613",
			"latitude": "39.999426"
		},
		"city": "北京市",
		"province": "北京市",
		"district": "海淀区"
	},
	{
		"Id": 428,
		"name": "湖北省电力勘测设计院",
		"coordinate": {
			"longitude": "114.161026",
			"latitude": "30.643094"
		},
		"city": "武汉市",
		"province": "湖北省",
		"district": "东西湖区"
	},
	{
		"Id": 429,
		"name": "复旦大学历史地理研究中心",
		"coordinate": {
			"longitude": "121.505600",
			"latitude": "31.294676"
		},
		"city": "上海市",
		"province": "上海市",
		"district": "杨浦区"
	},
	{
		"Id": 430,
		"name": "国网上海市电力公司检修公司",
		"coordinate": {
			"longitude": "121.363895",
			"latitude": "31.282040"
		},
		"city": "上海市",
		"province": "上海市",
		"district": "普陀区"
	},
	{
		"Id": 431,
		"name": "河南省烟草公司平顶山市公司",
		"coordinate": {
			"longitude": "113.287327",
			"latitude": "33.737635"
		},
		"city": "平顶山市",
		"province": "河南省",
		"district": "新华区"
	},
	{
		"Id": 432,
		"name": "中国地质大学(北京)土地科学技术学院",
		"coordinate": {
			"longitude": "116.351455",
			"latitude": "39.992692"
		},
		"city": "北京市",
		"province": "北京市",
		"district": "海淀区"
	},
	{
		"Id": 433,
		"name": "自然资源部土地整治重点实验室",
		"coordinate": {
			"longitude": "103.935836",
			"latitude": "30.783412"
		},
		"city": "成都市",
		"province": "四川省",
		"district": "郫都区"
	},
	{
		"Id": 434,
		"name": "重庆美文地理信息有限公司",
		"coordinate": {
			"longitude": 106.55843415537664,
			"latitude": 29.568996245338923
		},
		"city": "",
		"province": "",
		"district": ""
	},
	{
		"Id": 435,
		"name": "重庆市地理信息云服务企业工程技术研究中心",
		"coordinate": {
			"longitude": "106.118027",
			"latitude": "29.857010"
		},
		"city": "重庆市",
		"province": "重庆市",
		"district": "铜梁区"
	},
	{
		"Id": 436,
		"name": "德州市城市规划设计研究院",
		"coordinate": {
			"longitude": "116.357279",
			"latitude": "37.437235"
		},
		"city": "德州市",
		"province": "山东省",
		"district": "德城区"
	},
	{
		"Id": 437,
		"name": "襄阳供电公司",
		"coordinate": {
			"longitude": "112.136779",
			"latitude": "32.036168"
		},
		"city": "襄阳市",
		"province": "湖北省",
		"district": "樊城区"
	},
	{
		"Id": 438,
		"name": "浙江·国网绍兴供电公司",
		"coordinate": {
			"longitude": "120.582999",
			"latitude": "30.003638"
		},
		"city": "绍兴市",
		"province": "浙江省",
		"district": "越城区"
	},
	{
		"Id": 439,
		"name": "湖南长高电气有限公司",
		"coordinate": {
			"longitude": "113.017895",
			"latitude": "28.203208"
		},
		"city": "长沙市",
		"province": "湖南省",
		"district": "芙蓉区"
	},
	{
		"Id": 440,
		"name": "临海市方圆房地产测绘事务所",
		"coordinate": {
			"longitude": "121.145047",
			"latitude": "28.858457"
		},
		"city": "台州市",
		"province": "浙江省",
		"district": "临海市"
	},
	{
		"Id": 441,
		"name": "山东大学公共卫生学院",
		"coordinate": {
			"longitude": "117.019210",
			"latitude": "36.654809"
		},
		"city": "济南市",
		"province": "山东省",
		"district": "历下区"
	},
	{
		"Id": 442,
		"name": "山东第一医科大学医药管理学院",
		"coordinate": {
			"longitude": "117.017355",
			"latitude": "36.651738"
		},
		"city": "济南市",
		"province": "山东省",
		"district": "历下区"
	},
	{
		"Id": 443,
		"name": "华南农业大学资源环境学院",
		"coordinate": {
			"longitude": "110.652612",
			"latitude": "26.042452"
		},
		"city": "桂林市",
		"province": "广西壮族自治区",
		"district": "资源县"
	},
	{
		"Id": 444,
		"name": "广东省土地利用与整治重点实验室",
		"coordinate": {
			"longitude": "113.281940",
			"latitude": "23.125635"
		},
		"city": "广州市",
		"province": "广东省",
		"district": "越秀区"
	},
	{
		"Id": 445,
		"name": "国土资源部建设用地再开发重点实验室",
		"coordinate": {
			"longitude": "110.323611",
			"latitude": "25.256149"
		},
		"city": "桂林市",
		"province": "广西壮族自治区",
		"district": "七星区"
	},
	{
		"Id": 446,
		"name": "大连海事大学",
		"coordinate": {
			"longitude": "121.529038",
			"latitude": "38.869782"
		},
		"city": "大连市",
		"province": "辽宁省",
		"district": "甘井子区"
	},
	{
		"Id": 447,
		"name": "中电建水环境治理技术有限公司",
		"coordinate": {
			"longitude": 0,
			"latitude": 0
		},
		"city": "",
		"province": "",
		"district": ""
	},
	{
		"Id": 448,
		"name": "广东工业大学土木与交通工程学院",
		"coordinate": {
			"longitude": "113.298940",
			"latitude": "23.132259"
		},
		"city": "广州市",
		"province": "广东省",
		"district": "越秀区"
	},
	{
		"Id": 449,
		"name": "中国人民解放军96669部队610分队",
		"coordinate": {
			"longitude": "116.827486",
			"latitude": "38.309339"
		},
		"city": "沧州市",
		"province": "河北省",
		"district": "运河区"
	},
	{
		"Id": 450,
		"name": "江南大学",
		"coordinate": {
			"longitude": "108.273206",
			"latitude": "22.781166"
		},
		"city": "南宁市",
		"province": "广西壮族自治区",
		"district": "江南区"
	},
	{
		"Id": 451,
		"name": "西南大学地理科学学院",
		"coordinate": {
			"longitude": "106.423210",
			"latitude": "29.821762"
		},
		"city": "重庆市",
		"province": "重庆市",
		"district": "北碚区"
	},
	{
		"Id": 452,
		"name": "遥感大数据应用重庆工程研究中心",
		"coordinate": {
			"longitude": "106.666029",
			"latitude": "29.656719"
		},
		"city": "重庆市",
		"province": "重庆市",
		"district": "渝北区"
	},
	{
		"Id": 453,
		"name": "兰州理工大学",
		"coordinate": {
			"longitude": "103.775710",
			"latitude": "36.054676"
		},
		"city": "兰州市",
		"province": "甘肃省",
		"district": "七里河区"
	},
	{
		"Id": 454,
		"name": "长江水利委员会长江科学院",
		"coordinate": {
			"longitude": "114.288943",
			"latitude": "30.623373"
		},
		"city": "武汉市",
		"province": "湖北省",
		"district": "江岸区"
	},
	{
		"Id": 455,
		"name": "水利部山洪地质灾害防治工程技术研究中心",
		"coordinate": {
			"longitude": "119.376664",
			"latitude": "31.422616"
		},
		"city": "常州市",
		"province": "江苏省",
		"district": "溧阳市"
	},
	{
		"Id": 456,
		"name": "伊朗设拉子大学农业学院自然资源与环境工程系",
		"coordinate": {
			"longitude": "104.249832",
			"latitude": "23.358013"
		},
		"city": "文山壮族苗族自治州",
		"province": "云南省",
		"district": "文山市"
	},
	{
		"Id": 457,
		"name": "湖北省恩施市林业调查规划设计队",
		"coordinate": {
			"longitude": "109.488172",
			"latitude": "30.272156"
		},
		"city": "恩施土家族苗族自治州",
		"province": "湖北省",
		"district": []
	},
	{
		"Id": 458,
		"name": "北京建筑大学测绘与城市空间信息学院",
		"coordinate": {
			"longitude": "116.341093",
			"latitude": "39.936144"
		},
		"city": "北京市",
		"province": "北京市",
		"district": "西城区"
	},
	{
		"Id": 459,
		"name": "国网山东省电力公司淄博供电公司",
		"coordinate": {
			"longitude": "117.995655",
			"latitude": "36.833149"
		},
		"city": "淄博市",
		"province": "山东省",
		"district": "张店区"
	},
	{
		"Id": 460,
		"name": "中石化地球物理华东分公司",
		"coordinate": {
			"longitude": "112.514032",
			"latitude": "33.016458"
		},
		"city": "南阳市",
		"province": "河南省",
		"district": "卧龙区"
	},
	{
		"Id": 461,
		"name": "东华理工大学",
		"coordinate": {
			"longitude": "116.354691",
			"latitude": "28.001877"
		},
		"city": "抚州市",
		"province": "江西省",
		"district": "临川区"
	},
	{
		"Id": 462,
		"name": "陕西省地质调查院",
		"coordinate": {
			"longitude": "108.930449",
			"latitude": "34.241540"
		},
		"city": "西安市",
		"province": "陕西省",
		"district": "碑林区"
	},
	{
		"Id": 463,
		"name": "核工业二四三大队",
		"coordinate": {
			"longitude": "116.064423",
			"latitude": "39.734100"
		},
		"city": "北京市",
		"province": "北京市",
		"district": "房山区"
	},
	{
		"Id": 464,
		"name": "辽宁省核工业地质二四二大队有限责任公司",
		"coordinate": {
			"longitude": 0,
			"latitude": 0
		},
		"city": "",
		"province": "",
		"district": ""
	},
	{
		"Id": 465,
		"name": "南京大学地理与海洋科学学院",
		"coordinate": {
			"longitude": "118.781576",
			"latitude": "32.056625"
		},
		"city": "南京市",
		"province": "江苏省",
		"district": "鼓楼区"
	},
	{
		"Id": 466,
		"name": "衡阳师范学院城市与旅游学院",
		"coordinate": {
			"longitude": "112.679648",
			"latitude": "26.879304"
		},
		"city": "衡阳市",
		"province": "湖南省",
		"district": "珠晖区"
	},
	{
		"Id": 467,
		"name": "大庆油田有限责任公司第五采油厂",
		"coordinate": {
			"longitude": "124.898804",
			"latitude": "46.636953"
		},
		"city": "大庆市",
		"province": "黑龙江省",
		"district": "让胡路区"
	},
	{
		"Id": 468,
		"name": "中设设计集团股份有限公司",
		"coordinate": {
			"longitude": "106.290705",
			"latitude": "38.479506"
		},
		"city": "银川市",
		"province": "宁夏回族自治区",
		"district": "兴庆区"
	},
	{
		"Id": 469,
		"name": "西华大学土木建筑与环境学院",
		"coordinate": {
			"longitude": "103.956688",
			"latitude": "30.777114"
		},
		"city": "成都市",
		"province": "四川省",
		"district": "郫都区"
	},
	{
		"Id": 470,
		"name": "西南交通大学建筑与设计学院",
		"coordinate": {
			"longitude": "114.230821",
			"latitude": "22.741594"
		},
		"city": "深圳市",
		"province": "广东省",
		"district": "龙岗区"
	},
	{
		"Id": 471,
		"name": "无锡市城市规划信息中心",
		"coordinate": {
			"longitude": "120.282813",
			"latitude": "31.525985"
		},
		"city": "无锡市",
		"province": "江苏省",
		"district": "滨湖区"
	},
	{
		"Id": 472,
		"name": "北京师范大学水科学研究院/城市水循环与海绵城市技术北京市重点实验室",
		"coordinate": {
			"longitude": 0,
			"latitude": 0
		},
		"city": "",
		"province": "",
		"district": ""
	},
	{
		"Id": 473,
		"name": "中国环境科学研究院/国家环境保护区域生态过程与功能评估重点实验室",
		"coordinate": {
			"longitude": 116.42373484816761,
			"latitude": 40.04854343144141
		},
		"city": "",
		"province": "",
		"district": ""
	},
	{
		"Id": 474,
		"name": "北京麋鹿生态实验中心",
		"coordinate": {
			"longitude": 0,
			"latitude": 0
		},
		"city": "",
		"province": "",
		"district": ""
	},
	{
		"Id": 475,
		"name": "中国人民大学环境学院",
		"coordinate": {
			"longitude": "116.312286",
			"latitude": "39.970722"
		},
		"city": "北京市",
		"province": "北京市",
		"district": "海淀区"
	},
	{
		"Id": 476,
		"name": "中南大学地球科学与信息物理学院",
		"coordinate": {
			"longitude": "112.947418",
			"latitude": "28.218803"
		},
		"city": "长沙市",
		"province": "湖南省",
		"district": "岳麓区"
	},
	{
		"Id": 477,
		"name": "中南大学有色金属成矿预测教育部重点实验室",
		"coordinate": {
			"longitude": 112.93419748493426,
			"latitude": 28.177199917675676
		},
		"city": "",
		"province": "",
		"district": ""
	},
	{
		"Id": 478,
		"name": "山东女子学院旅游学院",
		"coordinate": {
			"longitude": "116.825628",
			"latitude": "36.556824"
		},
		"city": "济南市",
		"province": "山东省",
		"district": "长清区"
	},
	{
		"Id": 479,
		"name": "吉林省基础测绘院",
		"coordinate": {
			"longitude": 0,
			"latitude": 0
		},
		"city": "",
		"province": "",
		"district": ""
	},
	{
		"Id": 480,
		"name": "吉林省基础地理信息中心",
		"coordinate": {
			"longitude": 0,
			"latitude": 0
		},
		"city": "",
		"province": "",
		"district": ""
	},
	{
		"Id": 481,
		"name": "长沙环境保护职业技术学院",
		"coordinate": {
			"longitude": "113.023334",
			"latitude": "28.128655"
		},
		"city": "长沙市",
		"province": "湖南省",
		"district": "雨花区"
	},
	{
		"Id": 482,
		"name": "长沙市规划信息服务中心",
		"coordinate": {
			"longitude": 0,
			"latitude": 0
		},
		"city": "",
		"province": "",
		"district": ""
	},
	{
		"Id": 483,
		"name": "中南大学地学与环境工程学院",
		"coordinate": {
			"longitude": 0,
			"latitude": 0
		},
		"city": "",
		"province": "",
		"district": ""
	},
	{
		"Id": 484,
		"name": "重庆知行地理信息咨询服务有限公司",
		"coordinate": {
			"longitude": 0,
			"latitude": 0
		},
		"city": "",
		"province": "",
		"district": ""
	},
	{
		"Id": 485,
		"name": "首都经济贸易大学",
		"coordinate": {
			"longitude": "116.308571",
			"latitude": "39.979755"
		},
		"city": "北京市",
		"province": "北京市",
		"district": "海淀区"
	},
	{
		"Id": 486,
		"name": "永兴县林业局",
		"coordinate": {
			"longitude": 113.11825462454323,
			"latitude": 26.13456700512125
		},
		"city": "",
		"province": "",
		"district": ""
	},
	{
		"Id": 487,
		"name": "南充职业技术学院",
		"coordinate": {
			"longitude": 106.16156593742551,
			"latitude": 30.852535582543346
		},
		"city": "",
		"province": "",
		"district": ""
	},
	{
		"Id": 488,
		"name": "江苏城乡建设职业学院",
		"coordinate": {
			"longitude": "118.763232",
			"latitude": "32.061707"
		},
		"city": [],
		"province": "江苏省",
		"district": []
	},
	{
		"Id": 489,
		"name": "福州闽地勘测规划有限公司",
		"coordinate": {
			"longitude": "119.324367",
			"latitude": "26.139665"
		},
		"city": "福州市",
		"province": "福建省",
		"district": "晋安区"
	},
	{
		"Id": 490,
		"name": "福州市勘测院",
		"coordinate": {
			"longitude": 0,
			"latitude": 0
		},
		"city": "",
		"province": "",
		"district": ""
	},
	{
		"Id": 491,
		"name": "国家测绘地理信息局第一地形测量队",
		"coordinate": {
			"longitude": "88.130766",
			"latitude": "47.852564"
		},
		"city": "阿勒泰地区",
		"province": "新疆维吾尔自治区",
		"district": "阿勒泰市"
	},
	{
		"Id": 492,
		"name": "云南省国土资源厅国土资源信息中心",
		"coordinate": {
			"longitude": 0,
			"latitude": 0
		},
		"city": "",
		"province": "",
		"district": ""
	},
	{
		"Id": 493,
		"name": "国网江苏省电力有限公司检修分公司淮安运维站",
		"coordinate": {
			"longitude": "119.030500",
			"latitude": "33.022000"
		},
		"city": "淮安市",
		"province": "江苏省",
		"district": "金湖县"
	},
	{
		"Id": 494,
		"name": "河北省塞罕坝机械林场",
		"coordinate": {
			"longitude": 0,
			"latitude": 0
		},
		"city": "",
		"province": "",
		"district": ""
	},
	{
		"Id": 495,
		"name": "山西省造林局",
		"coordinate": {
			"longitude": "112.551582",
			"latitude": "37.844665"
		},
		"city": "太原市",
		"province": "山西省",
		"district": "迎泽区"
	},
	{
		"Id": 496,
		"name": "山西省煤炭地质资源环境调查院",
		"coordinate": {
			"longitude": "112.581679",
			"latitude": "37.803821"
		},
		"city": "太原市",
		"province": "山西省",
		"district": "小店区"
	},
	{
		"Id": 497,
		"name": "大连理工大学体育教学部",
		"coordinate": {
			"longitude": "121.532073",
			"latitude": "38.877490"
		},
		"city": "大连市",
		"province": "辽宁省",
		"district": "甘井子区"
	},
	{
		"Id": 498,
		"name": "湖南工业大学体育学院",
		"coordinate": {
			"longitude": "113.106165",
			"latitude": "27.824002"
		},
		"city": "株洲市",
		"province": "湖南省",
		"district": "天元区"
	},
	{
		"Id": 499,
		"name": "国网冀北电力有限公司张家口供电公司",
		"coordinate": {
			"longitude": "114.895140",
			"latitude": "40.820574"
		},
		"city": "张家口市",
		"province": "河北省",
		"district": "桥东区"
	},
	{
		"Id": 500,
		"name": "云南师范大学信息学院",
		"coordinate": {
			"longitude": 0,
			"latitude": 0
		},
		"city": "",
		"province": "",
		"district": ""
	},
	{
		"Id": 501,
		"name": "西部资源环境地理信息技术教育部工程研究中心",
		"coordinate": {
			"longitude": "110.325517",
			"latitude": "20.054078"
		},
		"city": "海口市",
		"province": "海南省",
		"district": "美兰区"
	},
	{
		"Id": 502,
		"name": "长安大学环境科学与工程学院",
		"coordinate": {
			"longitude": "108.958384",
			"latitude": "34.225058"
		},
		"city": "西安市",
		"province": "陕西省",
		"district": "雁塔区"
	},
	{
		"Id": 503,
		"name": "长安大学水与发展研究院",
		"coordinate": {
			"longitude": "108.958428",
			"latitude": "34.225063"
		},
		"city": "西安市",
		"province": "陕西省",
		"district": "雁塔区"
	},
	{
		"Id": 504,
		"name": "长安大学旱区地下水文与生态效应教育部重点实验室",
		"coordinate": {
			"longitude": "108.955053",
			"latitude": "34.228959"
		},
		"city": "西安市",
		"province": "陕西省",
		"district": "雁塔区"
	},
	{
		"Id": 505,
		"name": "长安大学地球科学与资源学院",
		"coordinate": {
			"longitude": 0,
			"latitude": 0
		},
		"city": "",
		"province": "",
		"district": ""
	},
	{
		"Id": 506,
		"name": "中国电建集团西北勘测设计研究院有限公司",
		"coordinate": {
			"longitude": "106.261047",
			"latitude": "38.452831"
		},
		"city": "银川市",
		"province": "宁夏回族自治区",
		"district": "兴庆区"
	},
	{
		"Id": 507,
		"name": "中国石化管道储运有限公司武汉输油处",
		"coordinate": {
			"longitude": "114.382293",
			"latitude": "30.590901"
		},
		"city": "武汉市",
		"province": "湖北省",
		"district": "洪山区"
	},
	{
		"Id": 508,
		"name": "中国石油大学(华东)地球科学与技术学院",
		"coordinate": {
			"longitude": "120.174561",
			"latitude": "35.937931"
		},
		"city": "青岛市",
		"province": "山东省",
		"district": "黄岛区"
	},
	{
		"Id": 509,
		"name": "青岛市城市规划设计研究院",
		"coordinate": {
			"longitude": "120.369742",
			"latitude": "36.058508"
		},
		"city": "青岛市",
		"province": "山东省",
		"district": "市南区"
	},
	{
		"Id": 510,
		"name": "中石化胜利石油工程有限公司地质录井公司",
		"coordinate": {
			"longitude": "110.326202",
			"latitude": "20.003885"
		},
		"city": "海口市",
		"province": "海南省",
		"district": "龙华区"
	},
	{
		"Id": 511,
		"name": "重庆第二师范学院",
		"coordinate": {
			"longitude": "106.576142",
			"latitude": "29.510449"
		},
		"city": "重庆市",
		"province": "重庆市",
		"district": "南岸区"
	},
	{
		"Id": 512,
		"name": "重庆人文科技学院",
		"coordinate": {
			"longitude": "106.412405",
			"latitude": "29.968891"
		},
		"city": "重庆市",
		"province": "重庆市",
		"district": "合川区"
	},
	{
		"Id": 513,
		"name": "国家测绘地理信息局第三大地测量队",
		"coordinate": {
			"longitude": "88.130766",
			"latitude": "47.852564"
		},
		"city": "阿勒泰地区",
		"province": "新疆维吾尔自治区",
		"district": "阿勒泰市"
	},
	{
		"Id": 514,
		"name": "武汉大学资源与环境科学学院",
		"coordinate": {
			"longitude": "114.360552",
			"latitude": "30.525517"
		},
		"city": "武汉市",
		"province": "湖北省",
		"district": "洪山区"
	},
	{
		"Id": 515,
		"name": "海南华都城市设计有限公司",
		"coordinate": {
			"longitude": "110.288244",
			"latitude": "20.013279"
		},
		"city": "海口市",
		"province": "海南省",
		"district": "秀英区"
	},
	{
		"Id": 516,
		"name": "湖北大学资源环境学院",
		"coordinate": {
			"longitude": "114.333439",
			"latitude": "30.577412"
		},
		"city": "武汉市",
		"province": "湖北省",
		"district": "武昌区"
	},
	{
		"Id": 517,
		"name": "测绘遥感信息工程国家重点实验室",
		"coordinate": {
			"longitude": "116.355663",
			"latitude": "40.046541"
		},
		"city": "北京市",
		"province": "北京市",
		"district": "海淀区"
	},
	{
		"Id": 518,
		"name": "国网江苏省电力有限公司海安市供电分公司",
		"coordinate": {
			"longitude": "120.477082",
			"latitude": "32.551834"
		},
		"city": "南通市",
		"province": "江苏省",
		"district": "海安市"
	},
	{
		"Id": 519,
		"name": "山西省建筑科学研究院",
		"coordinate": {
			"longitude": "112.582405",
			"latitude": "37.869128"
		},
		"city": "太原市",
		"province": "山西省",
		"district": "迎泽区"
	},
	{
		"Id": 520,
		"name": "湖南省农林工业勘察设计研究总院",
		"coordinate": {
			"longitude": "112.990905",
			"latitude": "28.180605"
		},
		"city": "长沙市",
		"province": "湖南省",
		"district": "雨花区"
	},
	{
		"Id": 521,
		"name": "63796部队",
		"coordinate": {
			"longitude": "116.827486",
			"latitude": "38.309339"
		},
		"city": "沧州市",
		"province": "河北省",
		"district": "运河区"
	},
	{
		"Id": 522,
		"name": "青海省地矿测绘院",
		"coordinate": {
			"longitude": "101.761433",
			"latitude": "36.602383"
		},
		"city": "西宁市",
		"province": "青海省",
		"district": "城中区"
	},
	{
		"Id": 523,
		"name": "青海省高原测绘地理信息新技术重点实验室",
		"coordinate": {
			"longitude": "101.750091",
			"latitude": "36.580468"
		},
		"city": "西宁市",
		"province": "青海省",
		"district": "城中区"
	},
	{
		"Id": 524,
		"name": "郑州师范学院",
		"coordinate": {
			"longitude": "113.654690",
			"latitude": "34.862647"
		},
		"city": "郑州市",
		"province": "河南省",
		"district": "惠济区"
	},
	{
		"Id": 525,
		"name": "大港油田信息中心",
		"coordinate": {
			"longitude": "117.495460",
			"latitude": "38.727320"
		},
		"city": "天津市",
		"province": "天津市",
		"district": "滨海新区"
	},
	{
		"Id": 526,
		"name": "长春中医药大学药学院",
		"coordinate": {
			"longitude": "125.411721",
			"latitude": "43.820631"
		},
		"city": "长春市",
		"province": "吉林省",
		"district": "南关区"
	},
	{
		"Id": 527,
		"name": "吉林省长白山中药资源工程研究中心",
		"coordinate": {
			"longitude": "128.297170",
			"latitude": "42.133694"
		},
		"city": "延边朝鲜族自治州",
		"province": "吉林省",
		"district": "安图县"
	},
	{
		"Id": 528,
		"name": "大连理工大学",
		"coordinate": {
			"longitude": "121.529015",
			"latitude": "38.880379"
		},
		"city": "大连市",
		"province": "辽宁省",
		"district": "甘井子区"
	},
	{
		"Id": 529,
		"name": "中石化石油工程设计有限公司",
		"coordinate": {
			"longitude": "109.106697",
			"latitude": "21.467220"
		},
		"city": "北海市",
		"province": "广西壮族自治区",
		"district": "海城区"
	},
	{
		"Id": 530,
		"name": "山东科技大学",
		"coordinate": {
			"longitude": "120.123712",
			"latitude": "36.005131"
		},
		"city": "青岛市",
		"province": "山东省",
		"district": "黄岛区"
	},
	{
		"Id": 531,
		"name": "云南省矿产资源预测评价工程实验室",
		"coordinate": {
			"longitude": "102.710002",
			"latitude": "25.045806"
		},
		"city": [],
		"province": "云南省",
		"district": []
	},
	{
		"Id": 532,
		"name": "吉林省通化市柳河县林业局",
		"coordinate": {
			"longitude": "125.763318",
			"latitude": "42.287150"
		},
		"city": "通化市",
		"province": "吉林省",
		"district": "柳河县"
	},
	{
		"Id": 533,
		"name": "中国矿业大学(北京)地球与测绘工程学院",
		"coordinate": {
			"longitude": "116.261684",
			"latitude": "40.153286"
		},
		"city": "北京市",
		"province": "北京市",
		"district": "昌平区"
	},
	{
		"Id": 534,
		"name": "国网浙江省电力公司浙江电力科学研究院",
		"coordinate": {
			"longitude": "120.161906",
			"latitude": "30.291290"
		},
		"city": "杭州市",
		"province": "浙江省",
		"district": "拱墅区"
	},
	{
		"Id": 535,
		"name": "扬州市职业大学资源与环境工程学院",
		"coordinate": {
			"longitude": "119.382139",
			"latitude": "32.394333"
		},
		"city": "扬州市",
		"province": "江苏省",
		"district": "邗江区"
	},
	{
		"Id": 536,
		"name": "吉林建筑大学",
		"coordinate": {
			"longitude": "125.407666",
			"latitude": "43.795220"
		},
		"city": "长春市",
		"province": "吉林省",
		"district": "南关区"
	},
	{
		"Id": 537,
		"name": "浙江省气象服务中心",
		"coordinate": {
			"longitude": "120.203231",
			"latitude": "30.275789"
		},
		"city": "杭州市",
		"province": "浙江省",
		"district": "钱塘区"
	},
	{
		"Id": 538,
		"name": "浙江省杭州市余杭区气象局",
		"coordinate": {
			"longitude": "120.308635",
			"latitude": "30.405152"
		},
		"city": "杭州市",
		"province": "浙江省",
		"district": "余杭区"
	},
	{
		"Id": 539,
		"name": "浙江省丽水市气象局",
		"coordinate": {
			"longitude": "119.934194",
			"latitude": "28.459316"
		},
		"city": "丽水市",
		"province": "浙江省",
		"district": "莲都区"
	},
	{
		"Id": 540,
		"name": "太原理工大学建筑与土木工程学院",
		"coordinate": {
			"longitude": "112.524026",
			"latitude": "37.861295"
		},
		"city": "太原市",
		"province": "山西省",
		"district": "万柏林区"
	},
	{
		"Id": 541,
		"name": "贵州省山地环境气候研究所贵州省山地气候与资源重点实验室",
		"coordinate": {
			"longitude": "106.719306",
			"latitude": "26.570547"
		},
		"city": "贵阳市",
		"province": "贵州省",
		"district": "南明区"
	},
	{
		"Id": 542,
		"name": "贵州省农业科学院",
		"coordinate": {
			"longitude": "106.660503",
			"latitude": "26.496301"
		},
		"city": "贵阳市",
		"province": "贵州省",
		"district": "花溪区"
	},